[
  {
    "name": "ST243 Gas Station",
    "country_code": "US",
    "address": "40401 S Groesbeck Hwy, Clinton Twp, MI 48036, USA",
    "latlng": {
      "lat": 42.595754,
      "lng": -82.900965
    },
    "timezone": "America/Detroit"
  },
  {
    "name": "ST260 Gas Station",
    "country_code": "US",
    "address": "2754 S Adams Rd, Rochester Hills, MI 48309, USA",
    "latlng": {
      "lat": 42.640557,
      "lng": -83.20605
    },
    "timezone": "America/Detroit"
  },
  {
    "name": "ST306 Gas Station",
    "country_code": "US",
    "address": "25191 Schoenherr Rd, Warren, MI 48089, USA",
    "latlng": {
      "lat": 42.47892,
      "lng": -82.987784
    },
    "timezone": "America/Detroit"
  },
  {
    "name": "ST308 Gas Station",
    "country_code": "US",
    "address": "1820 Nagel Rd, Avon, OH 44011, USA",
    "latlng": {
      "lat": 41.460156,
      "lng": -81.990116
    },
    "timezone": "America/New_York"
  },
  {
    "name": "DC860",
    "country_code": "US",
    "address": "536 N Main St, Middlebury, IN 46540, USA",
    "latlng": {
      "lat": 41.695604,
      "lng": -85.690354
    },
    "timezone": "America/Indiana/Indianapolis"
  },
  {
    "name": "DC883",
    "country_code": "US",
    "address": "8857 Swan Creek Rd, Newport, MI 48166, USA",
    "latlng": {
      "lat": 42.003244,
      "lng": -83.310436
    },
    "timezone": "America/Detroit"
  },
  {
    "name": "ST615",
    "country_code": "US",
    "address": "3000 Walker Ave NW, Grand Rapids, MI 49544, USA",
    "latlng": {
      "lat": 43.019061,
      "lng": -85.72445
    },
    "timezone": "America/Detroit"
  },
  {
    "name": "DC882",
    "country_code": "US",
    "address": "8857 Swan Creek Rd, Newport, MI 48166, USA",
    "latlng": {
      "lat": 42.003244,
      "lng": -83.310436
    },
    "timezone": "America/Detroit"
  },
  {
    "name": "BLG515",
    "country_code": "US",
    "address": "5020 Ross Dr SE, Grand Rapids, MI 49512, USA",
    "latlng": {
      "lat": 42.883543,
      "lng": -85.534346
    },
    "timezone": "America/Detroit"
  },
  {
    "name": "ST182",
    "country_code": "US",
    "address": "855 S Randall Rd, St. Charles, IL 60174, USA",
    "latlng": {
      "lat": 41.900856,
      "lng": -88.34351
    },
    "timezone": "America/Chicago"
  },
  {
    "name": "BLG975",
    "country_code": "HK",
    "address": "Tsim Sha Tsui Centre, 66 Mody Rd, Tsim Sha Tsui East, Hong Kong",
    "latlng": {
      "lat": 22.297658,
      "lng": 114.177841
    },
    "timezone": "Asia/Hong_Kong"
  },
  {
    "name": "ST325",
    "country_code": "US",
    "address": "4866 Fulton Dr NW, Canton, OH 44718, USA",
    "latlng": {
      "lat": 40.84626,
      "lng": -81.440081
    },
    "timezone": "America/New_York"
  },
  {
    "name": "ST148",
    "country_code": "US",
    "address": "888 Eastgate N Dr, Cincinnati, OH 45245, USA",
    "latlng": {
      "lat": 39.097907,
      "lng": -84.263785
    },
    "timezone": "America/New_York"
  },
  {
    "name": "ST178",
    "country_code": "US",
    "address": "808 Illinois Rte 59, Aurora, IL 60504, USA",
    "latlng": {
      "lat": 41.767909,
      "lng": -88.208461
    },
    "timezone": "America/Chicago"
  },
  {
    "name": "ST178 Gas Station",
    "country_code": "US",
    "address": "808 Illinois Rte 59, Aurora, IL 60504, USA",
    "latlng": {
      "lat": 41.767909,
      "lng": -88.208461
    },
    "timezone": "America/Chicago"
  },
  {
    "name": "BLG976",
    "country_code": "HK",
    "address": "Excel Centre, 483A Castle Peak Rd, Cheung Sha Wan, Hong Kong",
    "latlng": {
      "lat": 22.338757,
      "lng": 114.150136
    },
    "timezone": "Asia/Hong_Kong"
  },
  {
    "name": "ST239 Gas Station",
    "country_code": "US",
    "address": "2720 US-34, Oswego, IL 60543, USA",
    "latlng": {
      "lat": 41.700685,
      "lng": -88.31294
    },
    "timezone": "America/Chicago"
  },
  {
    "name": "ST245",
    "country_code": "US",
    "address": "2160 Hartland Rd, Hartland, MI 48353, USA",
    "latlng": {
      "lat": 42.638679,
      "lng": -83.744151
    },
    "timezone": "America/Detroit"
  },
  {
    "name": "ST251",
    "country_code": "US",
    "address": "5019 Red Arrow Hwy, Stevensville, MI 49127, USA",
    "latlng": {
      "lat": 42.027377,
      "lng": -86.518187
    },
    "timezone": "America/Detroit"
  },
  {
    "name": "ST020",
    "country_code": "US",
    "address": "2425 Alpine Ave NW, Walker, MI 49544, USA",
    "latlng": {
      "lat": 43.007883,
      "lng": -85.691231
    },
    "timezone": "America/Detroit"
  },
  {
    "name": "ST251 Gas Station",
    "country_code": "US",
    "address": "5019 Red Arrow Hwy, Stevensville, MI 49127, USA",
    "latlng": {
      "lat": 42.027377,
      "lng": -86.518187
    },
    "timezone": "America/Detroit"
  },
  {
    "name": "ST311",
    "country_code": "US",
    "address": "1540 28th St SE, Grand Rapids, MI 49508, USA",
    "latlng": {
      "lat": 42.910905,
      "lng": -85.629194
    },
    "timezone": "America/Detroit"
  },
  {
    "name": "ST108 Gas Station",
    "country_code": "US",
    "address": "7300 Eastman Ave, Midland, MI 48642, USA",
    "latlng": {
      "lat": 43.663185,
      "lng": -84.243356
    },
    "timezone": "America/Detroit"
  },
  {
    "name": "ST108",
    "country_code": "US",
    "address": "7300 Eastman Ave, Midland, MI 48642, USA",
    "latlng": {
      "lat": 43.663185,
      "lng": -84.243356
    },
    "timezone": "America/Detroit"
  },
  {
    "name": "ST020 Gas Station",
    "country_code": "US",
    "address": "2425 Alpine Ave NW, Walker, MI 49544, USA",
    "latlng": {
      "lat": 43.007883,
      "lng": -85.691231
    },
    "timezone": "America/Detroit"
  },
  {
    "name": "BLG985",
    "country_code": "US",
    "address": "2929 Walker Ave NW, Grand Rapids, MI 49544, USA",
    "latlng": {
      "lat": 43.016792,
      "lng": -85.724979
    },
    "timezone": "America/Detroit"
  },
  {
    "name": "BLG988",
    "country_code": "US",
    "address": "3040 Remico St SW, Grandville, MI 49418, USA",
    "latlng": {
      "lat": 42.90812,
      "lng": -85.740866
    },
    "timezone": "America/Detroit"
  },
  {
    "name": "ST022",
    "country_code": "US",
    "address": "5121 S Westnedge Ave, Portage, MI 49002, USA",
    "latlng": {
      "lat": 42.242641,
      "lng": -85.58825
    },
    "timezone": "America/Detroit"
  },
  {
    "name": "ST197",
    "country_code": "US",
    "address": "900 N Lapeer Rd, Oxford, MI 48371, USA",
    "latlng": {
      "lat": 42.84044,
      "lng": -83.272177
    },
    "timezone": "America/Detroit"
  },
  {
    "name": "ST222",
    "country_code": "US",
    "address": "1005 E Thirteen Mile Rd, Madison Heights, MI 48071, USA",
    "latlng": {
      "lat": 42.522984,
      "lng": -83.097365
    },
    "timezone": "America/Detroit"
  },
  {
    "name": "ST227",
    "country_code": "US",
    "address": "6001 Highland Rd, White Lake, MI 48383, USA",
    "latlng": {
      "lat": 42.649098,
      "lng": -83.526917
    },
    "timezone": "America/Detroit"
  },
  {
    "name": "ST054 Gas Station",
    "country_code": "US",
    "address": "20401 Haggerty Rd, Northville, MI 48167, USA",
    "latlng": {
      "lat": 42.435178,
      "lng": -83.435107
    },
    "timezone": "America/Detroit"
  },
  {
    "name": "ST042",
    "country_code": "US",
    "address": "8400 Gratiot Rd, Saginaw, MI 48609, USA",
    "latlng": {
      "lat": 43.418201,
      "lng": -84.080777
    },
    "timezone": "America/Detroit"
  },
  {
    "name": "ST022 Gas Station",
    "country_code": "US",
    "address": "5121 S Westnedge Ave, Portage, MI 49002, USA",
    "latlng": {
      "lat": 42.242641,
      "lng": -85.58825
    },
    "timezone": "America/Detroit"
  },
  {
    "name": "ST042 Gas Station",
    "country_code": "US",
    "address": "8396 Gratiot Rd, Saginaw, MI 48609, USA",
    "latlng": {
      "lat": 43.416387,
      "lng": -84.077621
    },
    "timezone": "America/Detroit"
  },
  {
    "name": "ST221",
    "country_code": "US",
    "address": "3434 Century Center St SW, Grandville, MI 49418, USA",
    "latlng": {
      "lat": 42.881535,
      "lng": -85.745913
    },
    "timezone": "America/Detroit"
  },
  {
    "name": "ST043",
    "country_code": "US",
    "address": "3360 Tittabawassee Rd, Saginaw, MI 48604, USA",
    "latlng": {
      "lat": 43.481787,
      "lng": -83.982434
    },
    "timezone": "America/Detroit"
  },
  {
    "name": "ST295",
    "country_code": "US",
    "address": "2390 N Morton St, Franklin, IN 46131, USA",
    "latlng": {
      "lat": 39.505503,
      "lng": -86.073509
    },
    "timezone": "America/Indiana/Indianapolis"
  },
  {
    "name": "ST295 Gas Station",
    "country_code": "US",
    "address": "2390 N Morton St, Franklin, IN 46131, USA",
    "latlng": {
      "lat": 39.505503,
      "lng": -86.073509
    },
    "timezone": "America/Indiana/Indianapolis"
  },
  {
    "name": "ST243",
    "country_code": "US",
    "address": "40445 S Groesbeck Hwy, Mt Clemens, MI 48043, USA",
    "latlng": {
      "lat": 42.595918,
      "lng": -82.90032
    },
    "timezone": "America/Detroit"
  },
  {
    "name": "ST043 Gas Station",
    "country_code": "US",
    "address": "3360 Tittabawassee Rd, Saginaw, MI 48604, USA",
    "latlng": {
      "lat": 43.481787,
      "lng": -83.982434
    },
    "timezone": "America/Detroit"
  },
  {
    "name": "ST133",
    "country_code": "US",
    "address": "10841 US-36, Avon, IN 46123, USA",
    "latlng": {
      "lat": 39.762109,
      "lng": -86.329458
    },
    "timezone": "America/Indiana/Indianapolis"
  },
  {
    "name": "ST260",
    "country_code": "US",
    "address": "3610 Marketplace Cir, Rochester Hills, MI 48309, USA",
    "latlng": {
      "lat": 42.643438,
      "lng": -83.20604
    },
    "timezone": "America/Detroit"
  },
  {
    "name": "ST133 Gas Station",
    "country_code": "US",
    "address": "10841 US-36, Avon, IN 46123, USA",
    "latlng": {
      "lat": 39.762109,
      "lng": -86.329458
    },
    "timezone": "America/Indiana/Indianapolis"
  },
  {
    "name": "ST290",
    "country_code": "US",
    "address": "5550 N Keystone Ave, Indianapolis, IN 46220, USA",
    "latlng": {
      "lat": 39.853439,
      "lng": -86.12397
    },
    "timezone": "America/Indiana/Indianapolis"
  },
  {
    "name": "ST306",
    "country_code": "US",
    "address": "25225 Schoenherr Rd, Warren, MI 48089, USA",
    "latlng": {
      "lat": 42.479691,
      "lng": -82.98827
    },
    "timezone": "America/Detroit"
  },
  {
    "name": "ST307",
    "country_code": "US",
    "address": "4303 Kent Rd, Stow, OH 44224, USA",
    "latlng": {
      "lat": 41.156462,
      "lng": -81.405163
    },
    "timezone": "America/New_York"
  },
  {
    "name": "ST308",
    "country_code": "US",
    "address": "1810 Nagel Rd, Avon, OH 44011, USA",
    "latlng": {
      "lat": 41.461437,
      "lng": -81.991484
    },
    "timezone": "America/New_York"
  },
  {
    "name": "ST309",
    "country_code": "US",
    "address": "9200 Mentor Ave, Mentor, OH 44060, USA",
    "latlng": {
      "lat": 41.674991,
      "lng": -81.309373
    },
    "timezone": "America/New_York"
  },
  {
    "name": "ST139",
    "country_code": "US",
    "address": "6260 W McGalliard Rd, Muncie, IN 47304, USA",
    "latlng": {
      "lat": 40.221137,
      "lng": -85.458991
    },
    "timezone": "America/Indiana/Indianapolis"
  },
  {
    "name": "ST141",
    "country_code": "US",
    "address": "2301 E Markland Ave, Kokomo, IN 46901, USA",
    "latlng": {
      "lat": 40.474283,
      "lng": -86.100892
    },
    "timezone": "America/Indiana/Indianapolis"
  },
  {
    "name": "ST141 Gas Station",
    "country_code": "US",
    "address": "2301 E Markland Ave, Kokomo, IN 46901, USA",
    "latlng": {
      "lat": 40.474283,
      "lng": -86.100892
    },
    "timezone": "America/Indiana/Indianapolis"
  },
  {
    "name": "ST030",
    "country_code": "US",
    "address": "2777 Airport Rd, Jackson, MI 49202, USA",
    "latlng": {
      "lat": 42.271264,
      "lng": -84.450561
    },
    "timezone": "America/Detroit"
  },
  {
    "name": "ST055",
    "country_code": "US",
    "address": "36600 Van Dyke Ave, Sterling Heights, MI 48312, USA",
    "latlng": {
      "lat": 42.562718,
      "lng": -83.027306
    },
    "timezone": "America/Detroit"
  },
  {
    "name": "ST317",
    "country_code": "US",
    "address": "247 Tallmadge Rd, Kent, OH 44240, USA",
    "latlng": {
      "lat": 41.100318,
      "lng": -81.384194
    },
    "timezone": "America/New_York"
  },
  {
    "name": "ST318",
    "country_code": "US",
    "address": "5350 N Leavitt Rd, Lorain, OH 44053, USA",
    "latlng": {
      "lat": 41.419594,
      "lng": -82.211802
    },
    "timezone": "America/New_York"
  },
  {
    "name": "ST233",
    "country_code": "US",
    "address": "3565 Fairlane Dr, Allen Park, MI 48101, USA",
    "latlng": {
      "lat": 42.278982,
      "lng": -83.204082
    },
    "timezone": "America/Detroit"
  },
  {
    "name": "DC086",
    "country_code": "US",
    "address": "3405 S Creyts Rd, Lansing, MI 48917, USA",
    "latlng": {
      "lat": 42.698634,
      "lng": -84.640256
    },
    "timezone": "America/Detroit"
  },
  {
    "name": "ST030 Gas Station",
    "country_code": "US",
    "address": "2777 Airport Rd, Jackson, MI 49202, USA",
    "latlng": {
      "lat": 42.271264,
      "lng": -84.450561
    },
    "timezone": "America/Detroit"
  },
  {
    "name": "ST056 Gas Station",
    "country_code": "US",
    "address": "3333 E Michigan Ave, Jackson, MI 49202, USA",
    "latlng": {
      "lat": 42.255435,
      "lng": -84.359595
    },
    "timezone": "America/Detroit"
  },
  {
    "name": "ST032",
    "country_code": "US",
    "address": "45001 Ford Rd, Canton, MI 48187, USA",
    "latlng": {
      "lat": 42.322045,
      "lng": -83.483862
    },
    "timezone": "America/Detroit"
  },
  {
    "name": "ST197 Gas Station",
    "country_code": "US",
    "address": "920 N Lapeer Rd, Oxford, MI 48371, USA",
    "latlng": {
      "lat": 42.841288,
      "lng": -83.273542
    },
    "timezone": "America/Detroit"
  },
  {
    "name": "ST032 Gas Station",
    "country_code": "US",
    "address": "45001 Ford Rd, Canton, MI 48187, USA",
    "latlng": {
      "lat": 42.322045,
      "lng": -83.483862
    },
    "timezone": "America/Detroit"
  },
  {
    "name": "ST222 Gas Station",
    "country_code": "US",
    "address": "1101 E Thirteen Mile Rd, Madison Heights, MI 48071, USA",
    "latlng": {
      "lat": 42.521233,
      "lng": -83.094958
    },
    "timezone": "America/Detroit"
  },
  {
    "name": "ST227 Gas Station",
    "country_code": "US",
    "address": "Audbon Dr, White Lake, MI 48383, USA",
    "latlng": {
      "lat": 42.649859,
      "lng": -83.530105
    },
    "timezone": "America/Detroit"
  },
  {
    "name": "ST034",
    "country_code": "US",
    "address": "5150 Coolidge Hwy, Royal Oak, MI 48073, USA",
    "latlng": {
      "lat": 42.537936,
      "lng": -83.184888
    },
    "timezone": "America/Detroit"
  },
  {
    "name": "ST034 Gas Station",
    "country_code": "US",
    "address": "5150 Coolidge Hwy, Royal Oak, MI 48073, USA",
    "latlng": {
      "lat": 42.537936,
      "lng": -83.184888
    },
    "timezone": "America/Detroit"
  },
  {
    "name": "ST058",
    "country_code": "US",
    "address": "6175 Sawmill Rd, Dublin, OH 43017, USA",
    "latlng": {
      "lat": 40.092665,
      "lng": -83.094179
    },
    "timezone": "America/New_York"
  },
  {
    "name": "ST650",
    "country_code": "US",
    "address": "405 Seward Ave NW, Grand Rapids, MI 49504, USA",
    "latlng": {
      "lat": 42.970925,
      "lng": -85.683277
    },
    "timezone": "America/Detroit"
  },
  {
    "name": "982 LAB",
    "country_code": "US",
    "address": "2727 Walker Ave NW, Grand Rapids, MI 49544, USA",
    "latlng": {
      "lat": 43.013717,
      "lng": -85.72453
    },
    "timezone": "America/Detroit"
  },
  {
    "name": "BLG812",
    "country_code": "US",
    "address": "4212 S Co Rd 25A, Tipp City, OH 45371, USA",
    "latlng": {
      "lat": 39.977778,
      "lng": -84.200141
    },
    "timezone": "America/New_York"
  },
  {
    "name": "ST058 Gas Station",
    "country_code": "US",
    "address": "6175 Sawmill Rd, Dublin, OH 43017, USA",
    "latlng": {
      "lat": 40.092665,
      "lng": -83.094179
    },
    "timezone": "America/New_York"
  },
  {
    "name": "ST044",
    "country_code": "US",
    "address": "2474 W Hill Rd, Flint, MI 48507, USA",
    "latlng": {
      "lat": 42.943938,
      "lng": -83.729957
    },
    "timezone": "America/Detroit"
  },
  {
    "name": "ST064",
    "country_code": "US",
    "address": "3145 Ann Arbor-Saline Rd, Ann Arbor, MI 48108, USA",
    "latlng": {
      "lat": 42.240073,
      "lng": -83.766674
    },
    "timezone": "America/Detroit"
  },
  {
    "name": "ST048",
    "country_code": "US",
    "address": "2980 Wilder Rd, Bay City, MI 48706, USA",
    "latlng": {
      "lat": 43.62241,
      "lng": -83.933735
    },
    "timezone": "America/Detroit"
  },
  {
    "name": "ST048 Gas Station",
    "country_code": "US",
    "address": "2980 Wilder Rd, Bay City, MI 48706, USA",
    "latlng": {
      "lat": 43.62241,
      "lng": -83.933735
    },
    "timezone": "America/Detroit"
  },
  {
    "name": "ST254 Gas Station",
    "country_code": "US",
    "address": "4075 32nd Ave, Hudsonville, MI 49426, USA",
    "latlng": {
      "lat": 42.842569,
      "lng": -85.864296
    },
    "timezone": "America/Detroit"
  },
  {
    "name": "ST052",
    "country_code": "US",
    "address": "1350 W Lake Lansing Rd, East Lansing, MI 48823, USA",
    "latlng": {
      "lat": 42.76277,
      "lng": -84.500916
    },
    "timezone": "America/Detroit"
  },
  {
    "name": "ST064 Gas Station",
    "country_code": "US",
    "address": "3145 Ann Arbor-Saline Rd, Ann Arbor, MI 48108, USA",
    "latlng": {
      "lat": 42.240073,
      "lng": -83.766674
    },
    "timezone": "America/Detroit"
  },
  {
    "name": "BLG810",
    "country_code": "US",
    "address": "234 Charles Dr, Holland, MI 49424, USA",
    "latlng": {
      "lat": 42.80344,
      "lng": -86.099422
    },
    "timezone": "America/Detroit"
  },
  {
    "name": "ST066",
    "country_code": "US",
    "address": "1500 Hillcrest Ave, Springfield, OH 45504, USA",
    "latlng": {
      "lat": 39.942643,
      "lng": -83.830398
    },
    "timezone": "America/New_York"
  },
  {
    "name": "ST068",
    "country_code": "US",
    "address": "37201 Warren Rd, Westland, MI 48185, USA",
    "latlng": {
      "lat": 42.333257,
      "lng": -83.406399
    },
    "timezone": "America/Detroit"
  },
  {
    "name": "ST068 Gas Station",
    "country_code": "US",
    "address": "37201 Warren Rd, Westland, MI 48185, USA",
    "latlng": {
      "lat": 42.333257,
      "lng": -83.406399
    },
    "timezone": "America/Detroit"
  },
  {
    "name": "ST072",
    "country_code": "US",
    "address": "9701 Belleville Rd, Belleville, MI 48111, USA",
    "latlng": {
      "lat": 42.232239,
      "lng": -83.483717
    },
    "timezone": "America/Detroit"
  },
  {
    "name": "BLG989",
    "country_code": "US",
    "address": "2350 3 Mile Rd NW, Grand Rapids, MI 49544, USA",
    "latlng": {
      "lat": 43.013527,
      "lng": -85.727401
    },
    "timezone": "America/Detroit"
  },
  {
    "name": "ST072 Gas Station",
    "country_code": "US",
    "address": "9701 Belleville Rd, Belleville, MI 48111, USA",
    "latlng": {
      "lat": 42.232239,
      "lng": -83.483717
    },
    "timezone": "America/Detroit"
  },
  {
    "name": "ST102",
    "country_code": "US",
    "address": "4075 Wilmington Pike, Kettering, OH 45440, USA",
    "latlng": {
      "lat": 39.685518,
      "lng": -84.133578
    },
    "timezone": "America/New_York"
  },
  {
    "name": "ST102 Gas Station",
    "country_code": "US",
    "address": "4075 Wilmington Pike, Kettering, OH 45440, USA",
    "latlng": {
      "lat": 39.685518,
      "lng": -84.133578
    },
    "timezone": "America/New_York"
  },
  {
    "name": "ST169 Gas Station",
    "country_code": "US",
    "address": "225 N Weber Rd, Bolingbrook, IL 60490, USA",
    "latlng": {
      "lat": 41.700957,
      "lng": -88.127613
    },
    "timezone": "America/Chicago"
  },
  {
    "name": "ST169",
    "country_code": "US",
    "address": "225 N Weber Rd, Bolingbrook, IL 60490, USA",
    "latlng": {
      "lat": 41.700957,
      "lng": -88.127613
    },
    "timezone": "America/Chicago"
  },
  {
    "name": "ST300",
    "country_code": "US",
    "address": "3801 N Richmond St, Appleton, WI 54913, USA",
    "latlng": {
      "lat": 44.300625,
      "lng": -88.41888
    },
    "timezone": "America/Chicago"
  },
  {
    "name": "ST051",
    "country_code": "US",
    "address": "2200 Tiffin Ave, Findlay, OH 45840, USA",
    "latlng": {
      "lat": 41.056322,
      "lng": -83.599922
    },
    "timezone": "America/New_York"
  },
  {
    "name": "DC811",
    "country_code": "US",
    "address": "4200 S Co Rd 25A, Tipp City, OH 45371, USA",
    "latlng": {
      "lat": 39.97731,
      "lng": -84.201219
    },
    "timezone": "America/New_York"
  },
  {
    "name": "ST298",
    "country_code": "US",
    "address": "2015 Shawano Ave, Howard, WI 54303, USA",
    "latlng": {
      "lat": 44.53457,
      "lng": -88.076688
    },
    "timezone": "America/Chicago"
  },
  {
    "name": "ST299",
    "country_code": "US",
    "address": "2180 S Main St, West Bend, WI 53095, USA",
    "latlng": {
      "lat": 43.393428,
      "lng": -88.184393
    },
    "timezone": "America/Chicago"
  },
  {
    "name": "ST607 Gas Station",
    "country_code": "US",
    "address": "614 Bridge St NW, Grand Rapids, MI 49504, USA",
    "latlng": {
      "lat": 42.970473,
      "lng": -85.6836
    },
    "timezone": "America/Detroit"
  },
  {
    "name": "DC090",
    "country_code": "US",
    "address": "2725 Walker Ave NW, Walker, MI 49544, USA",
    "latlng": {
      "lat": 43.012069,
      "lng": -85.72649
    },
    "timezone": "America/Detroit"
  },
  {
    "name": "BLG982",
    "country_code": "US",
    "address": "2727 Walker Ave NW, Grand Rapids, MI 49544, USA",
    "latlng": {
      "lat": 43.013717,
      "lng": -85.72453
    },
    "timezone": "America/Detroit"
  },
  {
    "name": "ST150 Gas Station",
    "country_code": "US",
    "address": "3911 Montgomery Rd, Loveland, OH 45140, United States",
    "latlng": {
      "lat": 39.292715,
      "lng": -84.292631
    },
    "timezone": "America/New_York"
  },
  {
    "name": "BLG464",
    "country_code": "US",
    "address": "41255 Coca Cola Dr, Van Buren Charter Township, MI 48111, USA",
    "latlng": {
      "lat": 42.242928,
      "lng": -83.445515
    },
    "timezone": "America/Detroit"
  },
  {
    "name": "ST150",
    "country_code": "US",
    "address": "3911 US-22, Loveland, OH 45140, USA",
    "latlng": {
      "lat": 39.292206,
      "lng": -84.293023
    },
    "timezone": "America/New_York"
  },
  {
    "name": "ST265",
    "country_code": "US",
    "address": "9200 S Western Ave, Evergreen Park, IL 60805, USA",
    "latlng": {
      "lat": 41.725308,
      "lng": -87.68232
    },
    "timezone": "America/Chicago"
  },
  {
    "name": "ST226",
    "country_code": "US",
    "address": "2799 10 Mile Rd NE, Rockford, MI 49341, USA",
    "latlng": {
      "lat": 43.12003,
      "lng": -85.601319
    },
    "timezone": "America/Detroit"
  },
  {
    "name": "ST067 Gas Station",
    "country_code": "US",
    "address": "505 W Lincoln Hwy, Merrillville, IN 46410, USA",
    "latlng": {
      "lat": 41.470431,
      "lng": -87.343212
    },
    "timezone": "America/Chicago"
  },
  {
    "name": "DC880",
    "country_code": "US",
    "address": "8857 Swan Creek Rd, Newport, MI 48166, USA",
    "latlng": {
      "lat": 42.003244,
      "lng": -83.310436
    },
    "timezone": "America/Detroit"
  },
  {
    "name": "DC805",
    "country_code": "US",
    "address": "4250 S Co Rd 25A, Tipp City, OH 45371, USA",
    "latlng": {
      "lat": 39.977319,
      "lng": -84.200082
    },
    "timezone": "America/New_York"
  },
  {
    "name": "DC800",
    "country_code": "US",
    "address": "4200 S Co Rd 25A, Tipp City, OH 45371, USA",
    "latlng": {
      "lat": 39.97719,
      "lng": -84.20077
    },
    "timezone": "America/New_York"
  },
  {
    "name": "ST173 Gas Station",
    "country_code": "US",
    "address": "5671 Jackson Rd, Ann Arbor, MI 48103, USA",
    "latlng": {
      "lat": 42.287975,
      "lng": -83.842258
    },
    "timezone": "America/Detroit"
  },
  {
    "name": "ST173",
    "country_code": "US",
    "address": "5645 Jackson Rd, Ann Arbor, MI 48103, USA",
    "latlng": {
      "lat": 42.288756,
      "lng": -83.84134
    },
    "timezone": "America/Detroit"
  },
  {
    "name": "DC092",
    "country_code": "US",
    "address": "3301 S Creyts Rd, Lansing, MI 48917, USA",
    "latlng": {
      "lat": 42.699183,
      "lng": -84.638498
    },
    "timezone": "America/Detroit"
  },
  {
    "name": "ST144",
    "country_code": "US",
    "address": "2900 Columbus-Lancaster Rd NW, Lancaster, OH 43130, USA",
    "latlng": {
      "lat": 39.750089,
      "lng": -82.654927
    },
    "timezone": "America/New_York"
  },
  {
    "name": "ST053",
    "country_code": "US",
    "address": "4200 Highland Rd, Waterford Twp, MI 48328, USA",
    "latlng": {
      "lat": 42.653714,
      "lng": -83.369893
    },
    "timezone": "America/Detroit"
  },
  {
    "name": "ST144 Gas Station",
    "country_code": "US",
    "address": "3000 Columbus-Lancaster Rd NW, Lancaster, OH 43130, USA",
    "latlng": {
      "lat": 39.748642,
      "lng": -82.656741
    },
    "timezone": "America/New_York"
  },
  {
    "name": "BLG463",
    "country_code": "US",
    "address": "1515 Profit Dr, Fort Wayne, IN 46808, USA",
    "latlng": {
      "lat": 41.125757,
      "lng": -85.163653
    },
    "timezone": "America/Indiana/Indianapolis"
  },
  {
    "name": "ST286",
    "country_code": "US",
    "address": "21431 Grand River Ave, Detroit, MI 48219, USA",
    "latlng": {
      "lat": 42.412483,
      "lng": -83.252899
    },
    "timezone": "America/Detroit"
  },
  {
    "name": "ST214",
    "country_code": "US",
    "address": "13521 Illinois Rte 59, Plainfield, IL 60544, USA",
    "latlng": {
      "lat": 41.634833,
      "lng": -88.199547
    },
    "timezone": "America/Chicago"
  },
  {
    "name": "ST105 Gas Station",
    "country_code": "US",
    "address": "51095 Gratiot Ave, Chesterfield, MI 48051, USA",
    "latlng": {
      "lat": 42.675922,
      "lng": -82.835101
    },
    "timezone": "America/Detroit"
  },
  {
    "name": "ST056",
    "country_code": "US",
    "address": "3333 E Michigan Ave, Jackson, MI 49202, USA",
    "latlng": {
      "lat": 42.255435,
      "lng": -84.359595
    },
    "timezone": "America/Detroit"
  },
  {
    "name": "ST105",
    "country_code": "US",
    "address": "27255 23 Mile Rd, Chesterfield, MI 48051, USA",
    "latlng": {
      "lat": 42.676738,
      "lng": -82.835452
    },
    "timezone": "America/Detroit"
  },
  {
    "name": "ST209 Gas Station",
    "country_code": "US",
    "address": "12821 Cross over Dr, Dewitt, MI 48820, USA",
    "latlng": {
      "lat": 42.828961,
      "lng": -84.536963
    },
    "timezone": "America/Detroit"
  },
  {
    "name": "Meijer-Clinic",
    "country_code": "US",
    "address": "2929 Walker Ave NW, Grand Rapids, MI 49544, USA",
    "latlng": {
      "lat": 43.016578,
      "lng": -85.726254
    },
    "timezone": "America/Detroit"
  },
  {
    "name": "ST327 Gas Station",
    "country_code": "US",
    "address": "6700 Broadmoor Ave SE, Caledonia, MI 49316, USA",
    "latlng": {
      "lat": 42.841962,
      "lng": -85.53166
    },
    "timezone": "America/Detroit"
  },
  {
    "name": "ST209",
    "country_code": "US",
    "address": "12821 Cross over Dr, Dewitt, MI 48820, USA",
    "latlng": {
      "lat": 42.828961,
      "lng": -84.536963
    },
    "timezone": "America/Detroit"
  },
  {
    "name": "ST140",
    "country_code": "US",
    "address": "1555 Demille Rd, Lapeer, MI 48446, USA",
    "latlng": {
      "lat": 43.043364,
      "lng": -83.322887
    },
    "timezone": "America/Detroit"
  },
  {
    "name": "ST112",
    "country_code": "US",
    "address": "1900 W Main St, Troy, OH 45373, USA",
    "latlng": {
      "lat": 40.054592,
      "lng": -84.242512
    },
    "timezone": "America/New_York"
  },
  {
    "name": "ST229",
    "country_code": "US",
    "address": "205 S Range Rd, Marysville, MI 48040, USA",
    "latlng": {
      "lat": 42.908692,
      "lng": -82.497271
    },
    "timezone": "America/Detroit"
  },
  {
    "name": "ST218 Gas Station",
    "country_code": "US",
    "address": "2253 N Richmond Rd, McHenry, IL 60050, USA",
    "latlng": {
      "lat": 42.359587,
      "lng": -88.269841
    },
    "timezone": "America/Chicago"
  },
  {
    "name": "DC802",
    "country_code": "US",
    "address": "4220 S Co Rd 25A, Tipp City, OH 45371, USA",
    "latlng": {
      "lat": 39.975375,
      "lng": -84.203891
    },
    "timezone": "America/New_York"
  },
  {
    "name": "ST218",
    "country_code": "US",
    "address": "2253 N Richmond Rd, McHenry, IL 60050, USA",
    "latlng": {
      "lat": 42.359587,
      "lng": -88.269841
    },
    "timezone": "America/Chicago"
  },
  {
    "name": "ST146",
    "country_code": "US",
    "address": "2401 N Prospect Ave, Champaign, IL 61822, USA",
    "latlng": {
      "lat": 40.144694,
      "lng": -88.257949
    },
    "timezone": "America/Chicago"
  },
  {
    "name": "ST313",
    "country_code": "US",
    "address": "Puri Pkwy, Sycamore, IL 60178, USA",
    "latlng": {
      "lat": 41.986524,
      "lng": -88.710307
    },
    "timezone": "America/Chicago"
  },
  {
    "name": "ST265 Gas Station",
    "country_code": "US",
    "address": "9202 S Western Ave, Evergreen Park, IL 60805, USA",
    "latlng": {
      "lat": 41.724863,
      "lng": -87.682748
    },
    "timezone": "America/Chicago"
  },
  {
    "name": "DC871",
    "country_code": "US",
    "address": "8900 Green Bay Rd, Pleasant Prairie, WI 53158, USA",
    "latlng": {
      "lat": 42.542826,
      "lng": -87.893331
    },
    "timezone": "America/Chicago"
  },
  {
    "name": "ST231",
    "country_code": "US",
    "address": "28800 Telegraph Rd, Southfield, MI 48034, USA",
    "latlng": {
      "lat": 42.499215,
      "lng": -83.284941
    },
    "timezone": "America/Detroit"
  },
  {
    "name": "DC881",
    "country_code": "US",
    "address": "8857 Swan Creek Rd, Newport, MI 48166, USA",
    "latlng": {
      "lat": 42.003244,
      "lng": -83.310436
    },
    "timezone": "America/Detroit"
  },
  {
    "name": "ST116",
    "country_code": "US",
    "address": "1725 S Wheeling St, Oregon, OH 43616, USA",
    "latlng": {
      "lat": 41.618872,
      "lng": -83.482525
    },
    "timezone": "America/New_York"
  },
  {
    "name": "ST035 Gas Station",
    "country_code": "US",
    "address": "14640 Pardee Rd, Taylor, MI 48180, USA",
    "latlng": {
      "lat": 42.199951,
      "lng": -83.26114
    },
    "timezone": "America/Detroit"
  },
  {
    "name": "ST035",
    "country_code": "US",
    "address": "14640 Pardee Rd, Taylor, MI 48180, USA",
    "latlng": {
      "lat": 42.199951,
      "lng": -83.26114
    },
    "timezone": "America/Detroit"
  },
  {
    "name": "ST151",
    "country_code": "US",
    "address": "4990 Houston Rd, Florence, KY 41042, USA",
    "latlng": {
      "lat": 39.011426,
      "lng": -84.638266
    },
    "timezone": "America/New_York"
  },
  {
    "name": "ST044 Gas Station",
    "country_code": "US",
    "address": "2474 W Hill Rd, Flint, MI 48507, USA",
    "latlng": {
      "lat": 42.943938,
      "lng": -83.729957
    },
    "timezone": "America/Detroit"
  },
  {
    "name": "ST046",
    "country_code": "US",
    "address": "8650 W Grand River Ave, Brighton, MI 48116, USA",
    "latlng": {
      "lat": 42.538634,
      "lng": -83.78746
    },
    "timezone": "America/Detroit"
  },
  {
    "name": "ST046 Gas Station",
    "country_code": "US",
    "address": "8660 W Grand River Ave, Brighton, MI 48116, USA",
    "latlng": {
      "lat": 42.539057,
      "lng": -83.786241
    },
    "timezone": "America/Detroit"
  },
  {
    "name": "ST154",
    "country_code": "US",
    "address": "8375 E 96th St, Indianapolis, IN 46256, USA",
    "latlng": {
      "lat": 39.925738,
      "lng": -86.021066
    },
    "timezone": "America/Indiana/Indianapolis"
  },
  {
    "name": "ST172",
    "country_code": "US",
    "address": "3883 E Grand River Ave, Howell, MI 48843, USA",
    "latlng": {
      "lat": 42.588614,
      "lng": -83.877824
    },
    "timezone": "America/Detroit"
  },
  {
    "name": "ST256",
    "country_code": "US",
    "address": "400 Dan Jones Rd, Plainfield, IN 46168, USA",
    "latlng": {
      "lat": 39.713406,
      "lng": -86.383121
    },
    "timezone": "America/Indiana/Indianapolis"
  },
  {
    "name": "ST194",
    "country_code": "US",
    "address": "1167 E Clinton Trail, Charlotte, MI 48813, USA",
    "latlng": {
      "lat": 42.553092,
      "lng": -84.817161
    },
    "timezone": "America/Detroit"
  },
  {
    "name": "ST070",
    "country_code": "US",
    "address": "22600 Allen Rd, Woodhaven, MI 48183, USA",
    "latlng": {
      "lat": 42.144205,
      "lng": -83.23019
    },
    "timezone": "America/Detroit"
  },
  {
    "name": "ST070 Gas Station",
    "country_code": "US",
    "address": "22600 Allen Rd, Woodhaven, MI 48183, USA",
    "latlng": {
      "lat": 42.144205,
      "lng": -83.23019
    },
    "timezone": "America/Detroit"
  },
  {
    "name": "ST061",
    "country_code": "US",
    "address": "Towne Blvd, Middletown, OH, USA",
    "latlng": {
      "lat": 39.491199,
      "lng": -84.330101
    },
    "timezone": "America/New_York"
  },
  {
    "name": "ST061 Gas Station",
    "country_code": "US",
    "address": "Towne Blvd, Middletown, OH, USA",
    "latlng": {
      "lat": 39.491199,
      "lng": -84.330101
    },
    "timezone": "America/New_York"
  },
  {
    "name": "ST311 Gas Station",
    "country_code": "US",
    "address": "2900 Kalamazoo Ave SE, Grand Rapids, MI 49508, USA",
    "latlng": {
      "lat": 42.910631,
      "lng": -85.626986
    },
    "timezone": "America/Detroit"
  },
  {
    "name": "ST190",
    "country_code": "US",
    "address": "2990 N Wayne St, Angola, IN 46703, USA",
    "latlng": {
      "lat": 41.669756,
      "lng": -84.999678
    },
    "timezone": "America/Indiana/Indianapolis"
  },
  {
    "name": "ST307 Gas Station",
    "country_code": "US",
    "address": "4303 Kent Rd, Stow, OH 44224, USA",
    "latlng": {
      "lat": 41.159057,
      "lng": -81.404852
    },
    "timezone": "America/New_York"
  },
  {
    "name": "ST190 Gas Station",
    "country_code": "US",
    "address": "2990 N Wayne St, Angola, IN 46703, USA",
    "latlng": {
      "lat": 41.669756,
      "lng": -84.999678
    },
    "timezone": "America/Indiana/Indianapolis"
  },
  {
    "name": "ST256 Gas Station",
    "country_code": "US",
    "address": "400 Dan Jones Rd, Plainfield, IN 46168, USA",
    "latlng": {
      "lat": 39.713406,
      "lng": -86.383121
    },
    "timezone": "America/Indiana/Indianapolis"
  },
  {
    "name": "ST157 Gas Station",
    "country_code": "US",
    "address": "Romar Center, 5694 Romar Dr, Milford, OH 45150, USA",
    "latlng": {
      "lat": 39.185701,
      "lng": -84.25957
    },
    "timezone": "America/New_York"
  },
  {
    "name": "ST157",
    "country_code": "US",
    "address": "Romar Center, 5694 Romar Dr, Milford, OH 45150, USA",
    "latlng": {
      "lat": 39.185846,
      "lng": -84.259351
    },
    "timezone": "America/New_York"
  },
  {
    "name": "ST188",
    "country_code": "US",
    "address": "13000 Middlebelt Rd, Livonia, MI 48150, USA",
    "latlng": {
      "lat": 42.377588,
      "lng": -83.331009
    },
    "timezone": "America/Detroit"
  },
  {
    "name": "ST196",
    "country_code": "US",
    "address": "8850 Shaver Rd, Portage, MI 49024, USA",
    "latlng": {
      "lat": 42.188903,
      "lng": -85.603971
    },
    "timezone": "America/Detroit"
  },
  {
    "name": "ST196 Gas Station",
    "country_code": "US",
    "address": "8994 Shaver Rd, Portage, MI 49024, USA",
    "latlng": {
      "lat": 42.186655,
      "lng": -85.604072
    },
    "timezone": "America/Detroit"
  },
  {
    "name": "ST208",
    "country_code": "US",
    "address": "3710 Dix Hwy, Lincoln Park, MI 48146, USA",
    "latlng": {
      "lat": 42.230545,
      "lng": -83.19516
    },
    "timezone": "America/Detroit"
  },
  {
    "name": "ST216",
    "country_code": "US",
    "address": "315 Wilson Ave NW, Walker, MI 49534, USA",
    "latlng": {
      "lat": 42.969903,
      "lng": -85.778139
    },
    "timezone": "America/Detroit"
  },
  {
    "name": "ST216 Gas Station",
    "country_code": "US",
    "address": "315 Wilson Ave NW, Walker, MI 49534, USA",
    "latlng": {
      "lat": 42.969903,
      "lng": -85.778139
    },
    "timezone": "America/Detroit"
  },
  {
    "name": "ST226 Gas Station",
    "country_code": "US",
    "address": "2799 10 Mile Rd NE, Rockford, MI 49341, USA",
    "latlng": {
      "lat": 43.12003,
      "lng": -85.601319
    },
    "timezone": "America/Detroit"
  },
  {
    "name": "ST232",
    "country_code": "US",
    "address": "5300 Harvey St, Muskegon, MI 49444, USA",
    "latlng": {
      "lat": 43.156312,
      "lng": -86.203333
    },
    "timezone": "America/Detroit"
  },
  {
    "name": "ST232 Gas Station",
    "country_code": "US",
    "address": "5326 Harvey St, Muskegon, MI 49444, USA",
    "latlng": {
      "lat": 43.158488,
      "lng": -86.205722
    },
    "timezone": "America/Detroit"
  },
  {
    "name": "ST242",
    "country_code": "US",
    "address": "36865 26 Mile Rd, New Haven, MI 48048, USA",
    "latlng": {
      "lat": 42.721489,
      "lng": -82.742187
    },
    "timezone": "America/Detroit"
  },
  {
    "name": "ST242 Gas Station",
    "country_code": "US",
    "address": "36689 26 Mile Rd, New Haven, MI 48048, USA",
    "latlng": {
      "lat": 42.72113,
      "lng": -82.742666
    },
    "timezone": "America/Detroit"
  },
  {
    "name": "WZC-RMA",
    "country_code": "US",
    "address": "24371 Catherine Industrial Dr, Novi, MI 48375, USA",
    "latlng": {
      "lat": 42.468695,
      "lng": -83.472274
    },
    "timezone": "America/Detroit"
  },
  {
    "name": "ST259 Gas Station",
    "country_code": "US",
    "address": "4141 Morrish Rd, Swartz Creek, MI 48473, USA",
    "latlng": {
      "lat": 42.968218,
      "lng": -83.826893
    },
    "timezone": "America/Detroit"
  },
  {
    "name": "ST155 Gas Station",
    "country_code": "US",
    "address": "2507 Chester Blvd, Richmond, IN 47375, USA",
    "latlng": {
      "lat": 39.869029,
      "lng": -84.885353
    },
    "timezone": "America/Indiana/Indianapolis"
  },
  {
    "name": "DUMMY",
    "country_code": "US",
    "address": "Grand Rapids, MI, USA",
    "latlng": {
      "lat": 42.96336,
      "lng": -85.668086
    },
    "timezone": "America/Detroit"
  },
  {
    "name": "ST244",
    "country_code": "US",
    "address": "8089 Lapeer Rd, Davison, MI 48423, USA",
    "latlng": {
      "lat": 43.01192,
      "lng": -83.552534
    },
    "timezone": "America/Detroit"
  },
  {
    "name": "ST244 Gas Station",
    "country_code": "US",
    "address": "1235 S Irish Rd, Davison, MI 48423, USA",
    "latlng": {
      "lat": 43.013179,
      "lng": -83.554694
    },
    "timezone": "America/Detroit"
  },
  {
    "name": "ST268",
    "country_code": "US",
    "address": "1301 Eight Mile Rd, Detroit, MI 48203, USA",
    "latlng": {
      "lat": 42.444319,
      "lng": -83.119828
    },
    "timezone": "America/Detroit"
  },
  {
    "name": "ST268 Gas Station",
    "country_code": "US",
    "address": "1301 W 8 Mile Rd, Detroit, MI 48203, USA",
    "latlng": {
      "lat": 42.444319,
      "lng": -83.119828
    },
    "timezone": "America/Detroit"
  },
  {
    "name": "ST325 Gas Station",
    "country_code": "US",
    "address": "4866 Fulton Dr NW, Canton, OH 44718, USA",
    "latlng": {
      "lat": 40.84626,
      "lng": -81.440081
    },
    "timezone": "America/New_York"
  },
  {
    "name": "ST274",
    "country_code": "US",
    "address": "1600 N Port Washington Rd, Grafton, WI 53024, USA",
    "latlng": {
      "lat": 43.313975,
      "lng": -87.922142
    },
    "timezone": "America/Chicago"
  },
  {
    "name": "ST278",
    "country_code": "US",
    "address": "26100 Vreeland Rd, Flat Rock, MI 48134, USA",
    "latlng": {
      "lat": 42.109963,
      "lng": -83.289357
    },
    "timezone": "America/Detroit"
  },
  {
    "name": "ST278 Gas Station",
    "country_code": "US",
    "address": "25950 Vreeland Rd, Flat Rock, MI 48134, USA",
    "latlng": {
      "lat": 42.109443,
      "lng": -83.287841
    },
    "timezone": "America/Detroit"
  },
  {
    "name": "ST286 Gas Station",
    "country_code": "US",
    "address": "21451 Grand River Ave, Detroit, MI 48219, USA",
    "latlng": {
      "lat": 42.413875,
      "lng": -83.252319
    },
    "timezone": "America/Detroit"
  },
  {
    "name": "ST304",
    "country_code": "US",
    "address": "1818 S Rapids Rd, Manitowoc, WI 54220, USA",
    "latlng": {
      "lat": 44.077743,
      "lng": -87.708246
    },
    "timezone": "America/Chicago"
  },
  {
    "name": "ST312",
    "country_code": "US",
    "address": "3757 Plainfield Ave NE, Grand Rapids, MI 49525, USA",
    "latlng": {
      "lat": 43.032973,
      "lng": -85.628081
    },
    "timezone": "America/Detroit"
  },
  {
    "name": "ST138",
    "country_code": "US",
    "address": "10301 Maysville Rd, Fort Wayne, IN 46815, USA",
    "latlng": {
      "lat": 41.129906,
      "lng": -85.011604
    },
    "timezone": "America/Indiana/Indianapolis"
  },
  {
    "name": "ST312 Gas Station",
    "country_code": "US",
    "address": "3757 Plainfield Ave NE, Grand Rapids, MI 49525, USA",
    "latlng": {
      "lat": 43.032973,
      "lng": -85.628081
    },
    "timezone": "America/Detroit"
  },
  {
    "name": "ST026 Gas Station",
    "country_code": "US",
    "address": "550 Baldwin St, Jenison, MI 49428, United States",
    "latlng": {
      "lat": 42.90484,
      "lng": -85.793659
    },
    "timezone": "America/Detroit"
  },
  {
    "name": "ST026",
    "country_code": "US",
    "address": "550 Baldwin St, Jenison, MI 49428, United States",
    "latlng": {
      "lat": 42.90484,
      "lng": -85.793659
    },
    "timezone": "America/Detroit"
  },
  {
    "name": "ST213 Gas Station",
    "country_code": "US",
    "address": "9515 Birch Run Rd, Birch Run, MI 48415, USA",
    "latlng": {
      "lat": 43.252397,
      "lng": -83.76479
    },
    "timezone": "America/Detroit"
  },
  {
    "name": "ST315",
    "country_code": "US",
    "address": "100 Pigeon Rd, Bad Axe, MI 48413, USA",
    "latlng": {
      "lat": 43.823904,
      "lng": -83.003816
    },
    "timezone": "America/Detroit"
  },
  {
    "name": "ST115",
    "country_code": "US",
    "address": "1391 Conant St, Maumee, OH 43537, USA",
    "latlng": {
      "lat": 41.579474,
      "lng": -83.666924
    },
    "timezone": "America/New_York"
  },
  {
    "name": "ST109",
    "country_code": "US",
    "address": "1703 Haggerty Rd, Commerce Charter Twp, MI 48390, USA",
    "latlng": {
      "lat": 42.547485,
      "lng": -83.439139
    },
    "timezone": "America/Detroit"
  },
  {
    "name": "ST319",
    "country_code": "US",
    "address": "Westfield, IN, USA",
    "latlng": {
      "lat": 40.042815,
      "lng": -86.127489
    },
    "timezone": "America/Indiana/Indianapolis"
  },
  {
    "name": "ST319 Gas Station",
    "country_code": "US",
    "address": "Westfield, IN, USA",
    "latlng": {
      "lat": 40.042815,
      "lng": -86.127489
    },
    "timezone": "America/Indiana/Indianapolis"
  },
  {
    "name": "ST320",
    "country_code": "US",
    "address": "Youngstown, OH, USA",
    "latlng": {
      "lat": 41.09978,
      "lng": -80.649519
    },
    "timezone": "America/New_York"
  },
  {
    "name": "ST321",
    "country_code": "US",
    "address": "Seven Hills, OH 44131, USA",
    "latlng": {
      "lat": 41.39533,
      "lng": -81.676239
    },
    "timezone": "America/New_York"
  },
  {
    "name": "ST109 Gas Station",
    "country_code": "US",
    "address": "1703 Haggerty Rd, Commerce Charter Twp, MI 48390, USA",
    "latlng": {
      "lat": 42.547485,
      "lng": -83.439139
    },
    "timezone": "America/Detroit"
  },
  {
    "name": "ST111",
    "country_code": "US",
    "address": "2153 Marion-Mt Gilead Rd, Marion, OH 43302, USA",
    "latlng": {
      "lat": 40.580533,
      "lng": -83.072375
    },
    "timezone": "America/New_York"
  },
  {
    "name": "ST213",
    "country_code": "US",
    "address": "9515 Birch Run Rd, Birch Run, MI 48415, USA",
    "latlng": {
      "lat": 43.252397,
      "lng": -83.76479
    },
    "timezone": "America/Detroit"
  },
  {
    "name": "ST111 Gas Station",
    "country_code": "US",
    "address": "2153 Marion-Mt Gilead Rd, Marion, OH 43302, USA",
    "latlng": {
      "lat": 40.580533,
      "lng": -83.072375
    },
    "timezone": "America/New_York"
  },
  {
    "name": "ST117 Gas Station",
    "country_code": "US",
    "address": "7240 Central Ave, Toledo, OH 43617, USA",
    "latlng": {
      "lat": 41.674637,
      "lng": -83.717473
    },
    "timezone": "America/New_York"
  },
  {
    "name": "ST321 Gas Station",
    "country_code": "US",
    "address": "Seven Hills, OH 44131, USA",
    "latlng": {
      "lat": 41.39533,
      "lng": -81.676239
    },
    "timezone": "America/New_York"
  },
  {
    "name": "ST025 Gas Station",
    "country_code": "US",
    "address": "2055 W Grand River Ave, Okemos, MI 48864, USA",
    "latlng": {
      "lat": 42.71906,
      "lng": -84.424675
    },
    "timezone": "America/Detroit"
  },
  {
    "name": "ST117",
    "country_code": "US",
    "address": "7240 Central Ave, Toledo, OH 43617, USA",
    "latlng": {
      "lat": 41.674637,
      "lng": -83.717473
    },
    "timezone": "America/New_York"
  },
  {
    "name": "ST136",
    "country_code": "US",
    "address": "6610 Scatterfield Rd, Anderson, IN 46013, USA",
    "latlng": {
      "lat": 40.048643,
      "lng": -85.649858
    },
    "timezone": "America/Indiana/Indianapolis"
  },
  {
    "name": "ST025",
    "country_code": "US",
    "address": "2055 W Grand River Ave, Okemos, MI 48864, USA",
    "latlng": {
      "lat": 42.71906,
      "lng": -84.424675
    },
    "timezone": "America/Detroit"
  },
  {
    "name": "ST036",
    "country_code": "US",
    "address": "5500 Clyde Park Ave SW, Wyoming, MI 49509, USA",
    "latlng": {
      "lat": 42.863916,
      "lng": -85.681899
    },
    "timezone": "America/Detroit"
  },
  {
    "name": "ST036 Gas Station",
    "country_code": "US",
    "address": "5500 Clyde Park Ave SW, Wyoming, MI 49509, USA",
    "latlng": {
      "lat": 42.863916,
      "lng": -85.681899
    },
    "timezone": "America/Detroit"
  },
  {
    "name": "ST050",
    "country_code": "US",
    "address": "5531 28th St SE, Grand Rapids, MI 49512, USA",
    "latlng": {
      "lat": 42.91498,
      "lng": -85.531997
    },
    "timezone": "America/Detroit"
  },
  {
    "name": "ST050 Gas Station",
    "country_code": "US",
    "address": "5531 28th St SE, Grand Rapids, MI 49512, USA",
    "latlng": {
      "lat": 42.91498,
      "lng": -85.531997
    },
    "timezone": "America/Detroit"
  },
  {
    "name": "ST326",
    "country_code": "US",
    "address": "3750 E Michigan 55, West Branch, MI 48661, USA",
    "latlng": {
      "lat": 44.276865,
      "lng": -84.267326
    },
    "timezone": "America/Detroit"
  },
  {
    "name": "ST107 Gas Station",
    "country_code": "US",
    "address": "3822 Colonel Glenn Hwy, Fairborn, OH 45324, USA",
    "latlng": {
      "lat": 39.77739,
      "lng": -84.073723
    },
    "timezone": "America/New_York"
  },
  {
    "name": "ST023",
    "country_code": "US",
    "address": "5125 W Saginaw Hwy, Lansing, MI 48917, USA",
    "latlng": {
      "lat": 42.741013,
      "lng": -84.623283
    },
    "timezone": "America/Detroit"
  },
  {
    "name": "ST107",
    "country_code": "US",
    "address": "3822 Colonel Glenn Hwy, Fairborn, OH 45324, USA",
    "latlng": {
      "lat": 39.77739,
      "lng": -84.073723
    },
    "timezone": "America/New_York"
  },
  {
    "name": "St174",
    "country_code": "US",
    "address": "550 Hull Rd, Mason, MI 48854, USA",
    "latlng": {
      "lat": 42.565992,
      "lng": -84.443447
    },
    "timezone": "America/Detroit"
  },
  {
    "name": "ST323 Gas Station",
    "country_code": "US",
    "address": "3800 Center Rd, Brunswick, OH 44212, USA",
    "latlng": {
      "lat": 41.238265,
      "lng": -81.822553
    },
    "timezone": "America/New_York"
  },
  {
    "name": "Meijer-Construction",
    "country_code": "US",
    "address": "2929 Walker Ave NW, Grand Rapids, MI 49544, USA",
    "latlng": {
      "lat": 43.016522,
      "lng": -85.726439
    },
    "timezone": "America/Detroit"
  },
  {
    "name": "ST191 Gas Station",
    "country_code": "US",
    "address": "1195 M-89, Plainwell, MI 49080, USA",
    "latlng": {
      "lat": 42.452174,
      "lng": -85.660505
    },
    "timezone": "America/Detroit"
  },
  {
    "name": "DC801",
    "country_code": "US",
    "address": "4200 S Co Rd 25A, Tipp City, OH 45371, USA",
    "latlng": {
      "lat": 39.97731,
      "lng": -84.201219
    },
    "timezone": "America/New_York"
  },
  {
    "name": "DC804",
    "country_code": "US",
    "address": "4212 S Co Rd 25A, Tipp City, OH 45371, USA",
    "latlng": {
      "lat": 39.977782,
      "lng": -84.200055
    },
    "timezone": "America/New_York"
  },
  {
    "name": "ST191",
    "country_code": "US",
    "address": "1195 M-89, Plainwell, MI 49080, USA",
    "latlng": {
      "lat": 42.452174,
      "lng": -85.660505
    },
    "timezone": "America/Detroit"
  },
  {
    "name": "ST045 Gas Station",
    "country_code": "US",
    "address": "217 US-223, Adrian, MI 49221, USA",
    "latlng": {
      "lat": 41.876166,
      "lng": -84.035634
    },
    "timezone": "America/Detroit"
  },
  {
    "name": "ST045",
    "country_code": "US",
    "address": "217 US-223, Adrian, MI 49221, USA",
    "latlng": {
      "lat": 41.876166,
      "lng": -84.035634
    },
    "timezone": "America/Detroit"
  },
  {
    "name": "ST113 Gas Station",
    "country_code": "US",
    "address": "2591 E M 21, Corunna, MI 48817, USA",
    "latlng": {
      "lat": 43.001596,
      "lng": -84.115475
    },
    "timezone": "America/Detroit"
  },
  {
    "name": "ST113",
    "country_code": "US",
    "address": "2591 E M 21, Corunna, MI 48817, USA",
    "latlng": {
      "lat": 43.001596,
      "lng": -84.115475
    },
    "timezone": "America/Detroit"
  },
  {
    "name": "ST119",
    "country_code": "US",
    "address": "6660 W Main St, Kalamazoo, MI 49009, USA",
    "latlng": {
      "lat": 42.297597,
      "lng": -85.679925
    },
    "timezone": "America/Detroit"
  },
  {
    "name": "ST248",
    "country_code": "US",
    "address": "3700 17 Mile Rd NE, Cedar Springs, MI 49319, USA",
    "latlng": {
      "lat": 43.219801,
      "lng": -85.578823
    },
    "timezone": "America/Detroit"
  },
  {
    "name": "ST652",
    "country_code": "US",
    "address": "600 E Michigan Ave, Lansing, MI 48912, USA",
    "latlng": {
      "lat": 42.733198,
      "lng": -84.544285
    },
    "timezone": "America/Detroit"
  },
  {
    "name": "ST248 Gas Station",
    "country_code": "US",
    "address": "3650 17 Mile Rd NE, Cedar Springs, MI 49319, USA",
    "latlng": {
      "lat": 43.219233,
      "lng": -85.580351
    },
    "timezone": "America/Detroit"
  },
  {
    "name": "ST135 Gas Station",
    "country_code": "US",
    "address": "1560 Main St, Hamilton, OH 45013, USA",
    "latlng": {
      "lat": 39.4294,
      "lng": -84.599515
    },
    "timezone": "America/New_York"
  },
  {
    "name": "ST651",
    "country_code": "US",
    "address": "1475 E Jefferson Ave, Detroit, MI 48207, USA",
    "latlng": {
      "lat": 42.334786,
      "lng": -83.031251
    },
    "timezone": "America/Detroit"
  },
  {
    "name": "ST653",
    "country_code": "US",
    "address": "30955 Woodward Ave, Royal Oak, MI 48073, USA",
    "latlng": {
      "lat": 42.517515,
      "lng": -83.186079
    },
    "timezone": "America/Detroit"
  },
  {
    "name": "ST135",
    "country_code": "US",
    "address": "1560 Main St, Hamilton, OH 45013, USA",
    "latlng": {
      "lat": 39.4294,
      "lng": -84.599515
    },
    "timezone": "America/New_York"
  },
  {
    "name": "ST119 Gas Station",
    "country_code": "US",
    "address": "6660 W Main St, Kalamazoo, MI 49009, USA",
    "latlng": {
      "lat": 42.297597,
      "lng": -85.679925
    },
    "timezone": "America/Detroit"
  },
  {
    "name": "BLG971",
    "country_code": "US",
    "address": "3309 S Creyts Rd, Lansing, MI 48917, USA",
    "latlng": {
      "lat": 42.698709,
      "lng": -84.640636
    },
    "timezone": "America/Detroit"
  },
  {
    "name": "ST121",
    "country_code": "US",
    "address": "5020 Grape Rd, Mishawaka, IN 46545, USA",
    "latlng": {
      "lat": 41.706547,
      "lng": -86.185665
    },
    "timezone": "America/Indiana/Indianapolis"
  },
  {
    "name": "ST199",
    "country_code": "US",
    "address": "1801 Marketplace Dr SE, Caledonia, MI 49316, USA",
    "latlng": {
      "lat": 42.846252,
      "lng": -85.619395
    },
    "timezone": "America/Detroit"
  },
  {
    "name": "ST027 Gas Station",
    "country_code": "US",
    "address": "3995 Carpenter Rd, Ypsilanti, MI 48197, USA",
    "latlng": {
      "lat": 42.231415,
      "lng": -83.679341
    },
    "timezone": "America/Detroit"
  },
  {
    "name": "ST125",
    "country_code": "US",
    "address": "5909 Illinois Rd, Fort Wayne, IN 46804, USA",
    "latlng": {
      "lat": 41.072814,
      "lng": -85.217143
    },
    "timezone": "America/Indiana/Indianapolis"
  },
  {
    "name": "ST027",
    "country_code": "US",
    "address": "3825 Carpenter Rd, Ypsilanti, MI 48197, USA",
    "latlng": {
      "lat": 42.233595,
      "lng": -83.676396
    },
    "timezone": "America/Detroit"
  },
  {
    "name": "ST125 Gas Station",
    "country_code": "US",
    "address": "5903 Illinois Rd, Fort Wayne, IN 46804, USA",
    "latlng": {
      "lat": 41.07377,
      "lng": -85.217179
    },
    "timezone": "America/Indiana/Indianapolis"
  },
  {
    "name": "ST136 Gas Station",
    "country_code": "US",
    "address": "6630 Scatterfield Rd, Anderson, IN 46013, USA",
    "latlng": {
      "lat": 40.04874,
      "lng": -85.651835
    },
    "timezone": "America/Indiana/Indianapolis"
  },
  {
    "name": "DC870",
    "country_code": "US",
    "address": "8900 Green Bay Rd, Pleasant Prairie, WI 53158, USA",
    "latlng": {
      "lat": 42.542826,
      "lng": -87.893331
    },
    "timezone": "America/Chicago"
  },
  {
    "name": "DC860-OUTDOOR",
    "country_code": "US",
    "address": "N Main St, Middlebury, IN 46571, USA",
    "latlng": {
      "lat": 41.547064,
      "lng": -85.539443
    },
    "timezone": "America/Indiana/Indianapolis"
  },
  {
    "name": "ST127",
    "country_code": "US",
    "address": "4522 Elkhart Rd, Goshen, IN 46526, USA",
    "latlng": {
      "lat": 41.625371,
      "lng": -85.910623
    },
    "timezone": "America/Indiana/Indianapolis"
  },
  {
    "name": "ST139 Gas Station",
    "country_code": "US",
    "address": "6260 W McGalliard Rd, Muncie, IN 47304, USA",
    "latlng": {
      "lat": 40.221137,
      "lng": -85.458991
    },
    "timezone": "America/Indiana/Indianapolis"
  },
  {
    "name": "ST127 Gas Station",
    "country_code": "US",
    "address": "4522 Elkhart Rd, Goshen, IN 46526, USA",
    "latlng": {
      "lat": 41.625371,
      "lng": -85.910623
    },
    "timezone": "America/Indiana/Indianapolis"
  },
  {
    "name": "2021 EVEN Example",
    "country_code": "US",
    "address": "3955 US-31, Traverse City, MI 49684, USA",
    "latlng": {
      "lat": 44.74344,
      "lng": -85.643929
    },
    "timezone": "America/Detroit"
  },
  {
    "name": "ST019",
    "country_code": "US",
    "address": "700 W Norton Ave, Muskegon, MI 49441, USA",
    "latlng": {
      "lat": 43.192744,
      "lng": -86.261252
    },
    "timezone": "America/Detroit"
  },
  {
    "name": "ST131",
    "country_code": "US",
    "address": "11351 E Washington St, Indianapolis, IN 46229, USA",
    "latlng": {
      "lat": 39.774449,
      "lng": -85.9643
    },
    "timezone": "America/Indiana/Indianapolis"
  },
  {
    "name": "ST019 Gas Station",
    "country_code": "US",
    "address": "650 W Norton Ave, Norton Shores, MI 49441, USA",
    "latlng": {
      "lat": 43.190766,
      "lng": -86.260999
    },
    "timezone": "America/Detroit"
  },
  {
    "name": "ST131 Gas Station",
    "country_code": "US",
    "address": "11349 E Washington St, Indianapolis, IN 46229, USA",
    "latlng": {
      "lat": 39.775287,
      "lng": -85.97168
    },
    "timezone": "America/Indiana/Indianapolis"
  },
  {
    "name": "ST021",
    "country_code": "US",
    "address": "5800 Gull Rd, Kalamazoo, MI 49048, USA",
    "latlng": {
      "lat": 42.324453,
      "lng": -85.515066
    },
    "timezone": "America/Detroit"
  },
  {
    "name": "ST021 Gas Station",
    "country_code": "US",
    "address": "5800 Gull Rd, Kalamazoo, MI 49048, USA",
    "latlng": {
      "lat": 42.324453,
      "lng": -85.515066
    },
    "timezone": "America/Detroit"
  },
  {
    "name": "ST029",
    "country_code": "US",
    "address": "G-2333 S Center Rd, Burton, MI 48519, United States",
    "latlng": {
      "lat": 42.993926,
      "lng": -83.630919
    },
    "timezone": "America/Detroit"
  },
  {
    "name": "ST029 Gas Station",
    "country_code": "US",
    "address": "G-2333 S Center Rd, Burton, MI 48519, United States",
    "latlng": {
      "lat": 42.993926,
      "lng": -83.630919
    },
    "timezone": "America/Detroit"
  },
  {
    "name": "ST110",
    "country_code": "US",
    "address": "3298 Elida Rd, Lima, OH 45805, USA",
    "latlng": {
      "lat": 40.77109,
      "lng": -84.161412
    },
    "timezone": "America/New_York"
  },
  {
    "name": "ST033",
    "country_code": "US",
    "address": "3955 US-31, Traverse City, MI 49684, USA",
    "latlng": {
      "lat": 44.743348,
      "lng": -85.643207
    },
    "timezone": "America/Detroit"
  },
  {
    "name": "ST033 Gas Station",
    "country_code": "US",
    "address": "3955 US-31, Traverse City, MI 49684, USA",
    "latlng": {
      "lat": 44.743348,
      "lng": -85.643207
    },
    "timezone": "America/Detroit"
  },
  {
    "name": "ST110 Gas Station",
    "country_code": "US",
    "address": "3298 Elida Rd, Lima, OH 45805, USA",
    "latlng": {
      "lat": 40.77109,
      "lng": -84.161412
    },
    "timezone": "America/New_York"
  },
  {
    "name": "ST041",
    "country_code": "US",
    "address": "1920 Pipestone Rd, Benton Harbor, MI 49022, USA",
    "latlng": {
      "lat": 42.082731,
      "lng": -86.421594
    },
    "timezone": "America/Detroit"
  },
  {
    "name": "ST041 Gas Station",
    "country_code": "US",
    "address": "1920 Pipestone Rd, Benton Harbor, MI 49022, USA",
    "latlng": {
      "lat": 42.082731,
      "lng": -86.421594
    },
    "timezone": "America/Detroit"
  },
  {
    "name": "ST047",
    "country_code": "US",
    "address": "746 E 16th St, Holland, MI 49423, USA",
    "latlng": {
      "lat": 42.781863,
      "lng": -86.075437
    },
    "timezone": "America/Detroit"
  },
  {
    "name": "ST137",
    "country_code": "US",
    "address": "4901 IN-26, Lafayette, IN 47905, USA",
    "latlng": {
      "lat": 40.417434,
      "lng": -86.811953
    },
    "timezone": "America/Indiana/Indianapolis"
  },
  {
    "name": "ST047 Gas Station",
    "country_code": "US",
    "address": "746 E 16th St, Holland, MI 49423, USA",
    "latlng": {
      "lat": 42.781863,
      "lng": -86.075437
    },
    "timezone": "America/Detroit"
  },
  {
    "name": "ST051 Gas Station",
    "country_code": "US",
    "address": "2200 Tiffin Ave, Findlay, OH 45840, USA",
    "latlng": {
      "lat": 41.056322,
      "lng": -83.599922
    },
    "timezone": "America/New_York"
  },
  {
    "name": "ST053 Gas Station",
    "country_code": "US",
    "address": "4200 Highland Rd, Waterford Twp, MI 48328, USA",
    "latlng": {
      "lat": 42.653714,
      "lng": -83.369893
    },
    "timezone": "America/Detroit"
  },
  {
    "name": "ST448",
    "country_code": "US",
    "address": "3700 Forest Park Ave, St. Louis, MO 63108, USA",
    "latlng": {
      "lat": 38.633894,
      "lng": -90.240151
    },
    "timezone": "America/Chicago"
  },
  {
    "name": "BLG984",
    "country_code": "US",
    "address": "2653 Walker Ave NW, Walker, MI 49544, USA",
    "latlng": {
      "lat": 43.011919,
      "lng": -85.722899
    },
    "timezone": "America/Detroit"
  },
  {
    "name": "ST112 Gas Station",
    "country_code": "US",
    "address": "1900 W Main St, Troy, OH 45373, USA",
    "latlng": {
      "lat": 40.054592,
      "lng": -84.242512
    },
    "timezone": "America/New_York"
  },
  {
    "name": "ST116 Gas Station",
    "country_code": "US",
    "address": "2801 Curtice Rd, Oregon, OH 43616, USA",
    "latlng": {
      "lat": 41.617715,
      "lng": -83.484984
    },
    "timezone": "America/New_York"
  },
  {
    "name": "ST118",
    "country_code": "US",
    "address": "1500 E Alexis Rd, Toledo, OH 43612, USA",
    "latlng": {
      "lat": 41.721058,
      "lng": -83.51091
    },
    "timezone": "America/New_York"
  },
  {
    "name": "ST118 Gas Station",
    "country_code": "US",
    "address": "1500 E Alexis Rd, Toledo, OH 43612, USA",
    "latlng": {
      "lat": 41.721058,
      "lng": -83.51091
    },
    "timezone": "America/New_York"
  },
  {
    "name": "ST120",
    "country_code": "US",
    "address": "3600 Portage Rd, South Bend, IN 46628, USA",
    "latlng": {
      "lat": 41.72595,
      "lng": -86.285745
    },
    "timezone": "America/Indiana/Indianapolis"
  },
  {
    "name": "ST254",
    "country_code": "US",
    "address": "4075 32nd Ave, Hudsonville, MI 49426, USA",
    "latlng": {
      "lat": 42.842569,
      "lng": -85.864296
    },
    "timezone": "America/Detroit"
  },
  {
    "name": "ST120 Gas Station",
    "country_code": "US",
    "address": "3600 Portage Rd, South Bend, IN 46628, USA",
    "latlng": {
      "lat": 41.72595,
      "lng": -86.285745
    },
    "timezone": "America/Indiana/Indianapolis"
  },
  {
    "name": "ST122",
    "country_code": "US",
    "address": "49900 Grand River Ave, Wixom, MI 48393, USA",
    "latlng": {
      "lat": 42.495596,
      "lng": -83.540927
    },
    "timezone": "America/Detroit"
  },
  {
    "name": "ST183",
    "country_code": "US",
    "address": "815 S Randall Rd, Elgin, IL 60123, USA",
    "latlng": {
      "lat": 42.009152,
      "lng": -88.336129
    },
    "timezone": "America/Chicago"
  },
  {
    "name": "ST159",
    "country_code": "US",
    "address": "6325 S Gilmore Rd, Fairfield, OH 45014, USA",
    "latlng": {
      "lat": 39.305315,
      "lng": -84.527149
    },
    "timezone": "America/Detroit"
  },
  {
    "name": "ST122 Gas Station",
    "country_code": "US",
    "address": "49900 Grand River Ave, Wixom, MI 48393, USA",
    "latlng": {
      "lat": 42.495596,
      "lng": -83.540927
    },
    "timezone": "America/Detroit"
  },
  {
    "name": "ST124",
    "country_code": "US",
    "address": "6309 Lima Rd, Fort Wayne, IN 46818, USA",
    "latlng": {
      "lat": 41.136913,
      "lng": -85.162186
    },
    "timezone": "America/Indiana/Indianapolis"
  },
  {
    "name": "ST124 Gas Station",
    "country_code": "US",
    "address": "6327 Lima Rd, Fort Wayne, IN 46818, USA",
    "latlng": {
      "lat": 41.137441,
      "lng": -85.162559
    },
    "timezone": "America/Indiana/Indianapolis"
  },
  {
    "name": "ST126",
    "country_code": "US",
    "address": "1355 Lexington-Springmill Rd N, Mansfield, OH 44903, USA",
    "latlng": {
      "lat": 40.789133,
      "lng": -82.591987
    },
    "timezone": "America/New_York"
  },
  {
    "name": "ST126 Gas Station",
    "country_code": "US",
    "address": "1321 N Lexington-Springmill Rd, Ontario, OH 44906, USA",
    "latlng": {
      "lat": 40.7881,
      "lng": -82.59085
    },
    "timezone": "America/New_York"
  },
  {
    "name": "ST130",
    "country_code": "US",
    "address": "1424 W Carmel Dr, Carmel, IN 46032, USA",
    "latlng": {
      "lat": 39.973456,
      "lng": -86.152597
    },
    "timezone": "America/Indiana/Indianapolis"
  },
  {
    "name": "ST130 Gas Station",
    "country_code": "US",
    "address": "1424 W Carmel Dr, Carmel, IN 46032, USA",
    "latlng": {
      "lat": 39.973456,
      "lng": -86.152597
    },
    "timezone": "America/Indiana/Indianapolis"
  },
  {
    "name": "ST132",
    "country_code": "US",
    "address": "150 S Marlin Dr, Greenwood, IN 46142, USA",
    "latlng": {
      "lat": 39.614282,
      "lng": -86.161959
    },
    "timezone": "America/Indiana/Indianapolis"
  },
  {
    "name": "ST132 Gas Station",
    "country_code": "US",
    "address": "72 N State Rd 135, Greenwood, IN 46142, USA",
    "latlng": {
      "lat": 39.616044,
      "lng": -86.159167
    },
    "timezone": "America/Indiana/Indianapolis"
  },
  {
    "name": "ST138 Gas Station",
    "country_code": "US",
    "address": "10301 Maysville Rd, Fort Wayne, IN 46815, USA",
    "latlng": {
      "lat": 41.129906,
      "lng": -85.011604
    },
    "timezone": "America/Indiana/Indianapolis"
  },
  {
    "name": "ST137 Gas Station",
    "country_code": "US",
    "address": "4901 IN-26, Lafayette, IN 47905, USA",
    "latlng": {
      "lat": 40.417434,
      "lng": -86.811953
    },
    "timezone": "America/Indiana/Indianapolis"
  },
  {
    "name": "ST140 Gas Station",
    "country_code": "US",
    "address": "1515 Demille Rd, Lapeer, MI 48446, USA",
    "latlng": {
      "lat": 43.04278,
      "lng": -83.32449
    },
    "timezone": "America/Detroit"
  },
  {
    "name": "ST154 Gas Station",
    "country_code": "US",
    "address": "8225 E 96th St, Indianapolis, IN 46256, USA",
    "latlng": {
      "lat": 39.926255,
      "lng": -86.022665
    },
    "timezone": "America/Indiana/Indianapolis"
  },
  {
    "name": "ST158",
    "country_code": "US",
    "address": "1997 E Beltline Ave NE, Grand Rapids, MI 49525, USA",
    "latlng": {
      "lat": 42.996515,
      "lng": -85.594329
    },
    "timezone": "America/Detroit"
  },
  {
    "name": "ST145",
    "country_code": "US",
    "address": "34835 Utica Rd, Fraser, MI 48026, USA",
    "latlng": {
      "lat": 42.551778,
      "lng": -82.962295
    },
    "timezone": "America/Detroit"
  },
  {
    "name": "ST170",
    "country_code": "US",
    "address": "10138 Indianapolis Blvd, Highland, IN 46322, USA",
    "latlng": {
      "lat": 41.528295,
      "lng": -87.474327
    },
    "timezone": "America/Chicago"
  },
  {
    "name": "ST170 Gas Station",
    "country_code": "US",
    "address": "10240 Indianapolis Blvd, Highland, IN 46322, USA",
    "latlng": {
      "lat": 41.527247,
      "lng": -87.471797
    },
    "timezone": "America/Chicago"
  },
  {
    "name": "ST145 Gas Station",
    "country_code": "US",
    "address": "34835 Utica Rd, Fraser, MI 48026, USA",
    "latlng": {
      "lat": 42.551778,
      "lng": -82.962295
    },
    "timezone": "America/Detroit"
  },
  {
    "name": "ST180",
    "country_code": "US",
    "address": "15000 US-31, Grand Haven, MI 49417, USA",
    "latlng": {
      "lat": 43.039274,
      "lng": -86.217528
    },
    "timezone": "America/Detroit"
  },
  {
    "name": "ST180 Gas Station",
    "country_code": "US",
    "address": "15000 US-31, Grand Haven, MI 49417, USA",
    "latlng": {
      "lat": 43.039274,
      "lng": -86.217528
    },
    "timezone": "America/Detroit"
  },
  {
    "name": "ST129 Gas Station",
    "country_code": "US",
    "address": "5347 W Pike Plaza Rd, Indianapolis, IN 46254, USA",
    "latlng": {
      "lat": 39.827444,
      "lng": -86.252625
    },
    "timezone": "America/Indiana/Indianapolis"
  },
  {
    "name": "ST129",
    "country_code": "US",
    "address": "5349 W Pike Plaza Rd, Indianapolis, IN 46254, USA",
    "latlng": {
      "lat": 39.827306,
      "lng": -86.252261
    },
    "timezone": "America/Indiana/Indianapolis"
  },
  {
    "name": "ST305",
    "country_code": "US",
    "address": "924 N Taylor Dr, Sheboygan, WI 53081, USA",
    "latlng": {
      "lat": 43.754284,
      "lng": -87.750864
    },
    "timezone": "America/Chicago"
  },
  {
    "name": "ST149",
    "country_code": "US",
    "address": "5150 S Franklin St, Michigan City, IN 46360, United States",
    "latlng": {
      "lat": 41.674527,
      "lng": -86.89047
    },
    "timezone": "America/Chicago"
  },
  {
    "name": "ST149 Gas Station",
    "country_code": "US",
    "address": "5130 Franklin St, Michigan City, IN 46360, USA",
    "latlng": {
      "lat": 41.674521,
      "lng": -86.893131
    },
    "timezone": "America/Chicago"
  },
  {
    "name": "ST163",
    "country_code": "US",
    "address": "4775 24th Ave, Fort Gratiot Twp, MI 48059, USA",
    "latlng": {
      "lat": 43.046611,
      "lng": -82.45711
    },
    "timezone": "America/Detroit"
  },
  {
    "name": "ST114 Gas Station",
    "country_code": "US",
    "address": "5030 N Hamilton Rd, Columbus, OH 43230, USA",
    "latlng": {
      "lat": 40.059224,
      "lng": -82.863416
    },
    "timezone": "America/New_York"
  },
  {
    "name": "ST114",
    "country_code": "US",
    "address": "5050 N Hamilton Rd, Columbus, OH 43230, USA",
    "latlng": {
      "lat": 40.060773,
      "lng": -82.860192
    },
    "timezone": "America/New_York"
  },
  {
    "name": "ST163 Gas Station",
    "country_code": "US",
    "address": "4725 24th Ave, Fort Gratiot Twp, MI 48059, USA",
    "latlng": {
      "lat": 43.045932,
      "lng": -82.458119
    },
    "timezone": "America/Detroit"
  },
  {
    "name": "ST177",
    "country_code": "US",
    "address": "8401 26 Mile Rd, Washington, MI 48094, USA",
    "latlng": {
      "lat": 42.713848,
      "lng": -83.033236
    },
    "timezone": "America/Detroit"
  },
  {
    "name": "ST177 Gas Station",
    "country_code": "US",
    "address": "8501 26 Mile Rd, Washington, MI 48094, USA",
    "latlng": {
      "lat": 42.714466,
      "lng": -83.030809
    },
    "timezone": "America/Detroit"
  },
  {
    "name": "ST185",
    "country_code": "US",
    "address": "800 Brown Rd, Auburn Hills, MI 48326, USA",
    "latlng": {
      "lat": 42.705643,
      "lng": -83.287177
    },
    "timezone": "America/Detroit"
  },
  {
    "name": "ST305 Gas Station",
    "country_code": "US",
    "address": "924 N Taylor Dr, Sheboygan, WI 53081, USA",
    "latlng": {
      "lat": 43.754284,
      "lng": -87.750864
    },
    "timezone": "America/Chicago"
  },
  {
    "name": "ST185 Gas Station",
    "country_code": "US",
    "address": "850 Brown Rd, Auburn Hills, MI 48326, USA",
    "latlng": {
      "lat": 42.707171,
      "lng": -83.288439
    },
    "timezone": "America/Detroit"
  },
  {
    "name": "ST195",
    "country_code": "US",
    "address": "6405 B Dr N, Battle Creek, MI 49014, USA",
    "latlng": {
      "lat": 42.263289,
      "lng": -85.172886
    },
    "timezone": "America/Detroit"
  },
  {
    "name": "ST195 Gas Station",
    "country_code": "US",
    "address": "6345 B Dr N, Battle Creek, MI 49014, USA",
    "latlng": {
      "lat": 42.261751,
      "lng": -85.174309
    },
    "timezone": "America/Detroit"
  },
  {
    "name": "ST201",
    "country_code": "US",
    "address": "606 S Greenville W Dr, Greenville, MI 48838, USA",
    "latlng": {
      "lat": 43.174542,
      "lng": -85.277097
    },
    "timezone": "America/Detroit"
  },
  {
    "name": "DC872",
    "country_code": "US",
    "address": "8900 Green Bay Rd, Pleasant Prairie, WI 53158, USA",
    "latlng": {
      "lat": 42.542697,
      "lng": -87.893328
    },
    "timezone": "America/Chicago"
  },
  {
    "name": "ST201 Gas Station",
    "country_code": "US",
    "address": "415 S Greenville W Dr, Greenville, MI 48838, USA",
    "latlng": {
      "lat": 43.176372,
      "lng": -85.279782
    },
    "timezone": "America/Detroit"
  },
  {
    "name": "ST203",
    "country_code": "US",
    "address": "15400 Waldron Way, Big Rapids, MI 49307, USA",
    "latlng": {
      "lat": 43.690898,
      "lng": -85.51704
    },
    "timezone": "America/Detroit"
  },
  {
    "name": "ST203 Gas Station",
    "country_code": "US",
    "address": "15400 Waldron Way, Big Rapids, MI 49307, USA",
    "latlng": {
      "lat": 43.690898,
      "lng": -85.51704
    },
    "timezone": "America/Detroit"
  },
  {
    "name": "ST215",
    "country_code": "US",
    "address": "755 E Boughton Rd, Bolingbrook, IL 60440, USA",
    "latlng": {
      "lat": 41.721215,
      "lng": -88.036003
    },
    "timezone": "America/Chicago"
  },
  {
    "name": "ST215 Gas Station",
    "country_code": "US",
    "address": "735 E Boughton Rd, Bolingbrook, IL 60440, USA",
    "latlng": {
      "lat": 41.722573,
      "lng": -88.038544
    },
    "timezone": "America/Chicago"
  },
  {
    "name": "ST323",
    "country_code": "US",
    "address": "3800 Center Rd, Brunswick, OH 44212, USA",
    "latlng": {
      "lat": 41.238265,
      "lng": -81.822553
    },
    "timezone": "America/New_York"
  },
  {
    "name": "ST257",
    "country_code": "US",
    "address": "1201 Lears Rd, Petoskey, MI 49770, USA",
    "latlng": {
      "lat": 45.348487,
      "lng": -84.965798
    },
    "timezone": "America/Detroit"
  },
  {
    "name": "ST123 Gas Station",
    "country_code": "US",
    "address": "16300 Fort St, Southgate, MI 48195, USA",
    "latlng": {
      "lat": 42.190429,
      "lng": -83.184514
    },
    "timezone": "America/Detroit"
  },
  {
    "name": "ST123",
    "country_code": "US",
    "address": "16300 Fort St, Southgate, MI 48195, USA",
    "latlng": {
      "lat": 42.190429,
      "lng": -83.184514
    },
    "timezone": "America/Detroit"
  },
  {
    "name": "ST257 Gas Station",
    "country_code": "US",
    "address": "1201 Lears Rd, Petoskey, MI 49770, USA",
    "latlng": {
      "lat": 45.348487,
      "lng": -84.965798
    },
    "timezone": "America/Detroit"
  },
  {
    "name": "ST055 Gas Station",
    "country_code": "US",
    "address": "36500 Van Dyke Ave, Sterling Heights, MI 48312, USA",
    "latlng": {
      "lat": 42.562216,
      "lng": -83.028396
    },
    "timezone": "America/Detroit"
  },
  {
    "name": "ST063",
    "country_code": "US",
    "address": "30800 Little Mack Ave, Roseville, MI 48066, USA",
    "latlng": {
      "lat": 42.523531,
      "lng": -82.906615
    },
    "timezone": "America/Detroit"
  },
  {
    "name": "ST063 Gas Station",
    "country_code": "US",
    "address": "30800 Little Mack Ave, Roseville, MI 48066, USA",
    "latlng": {
      "lat": 42.523531,
      "lng": -82.906615
    },
    "timezone": "America/Detroit"
  },
  {
    "name": "ST065",
    "country_code": "US",
    "address": "15055 Hall Rd, Utica, MI 48315, USA",
    "latlng": {
      "lat": 42.630109,
      "lng": -82.976701
    },
    "timezone": "America/Detroit"
  },
  {
    "name": "ST065 Gas Station",
    "country_code": "US",
    "address": "15055 Hall Rd, Utica, MI 48315, USA",
    "latlng": {
      "lat": 42.630109,
      "lng": -82.976701
    },
    "timezone": "America/Detroit"
  },
  {
    "name": "ST069",
    "country_code": "US",
    "address": "1015 E Pickard Rd, Mt Pleasant, MI 48858, USA",
    "latlng": {
      "lat": 43.61248,
      "lng": -84.763613
    },
    "timezone": "America/Detroit"
  },
  {
    "name": "ST069 Gas Station",
    "country_code": "US",
    "address": "1015 E Pickard Rd, Mt Pleasant, MI 48858, USA",
    "latlng": {
      "lat": 43.61248,
      "lng": -84.763613
    },
    "timezone": "America/Detroit"
  },
  {
    "name": "ST071",
    "country_code": "US",
    "address": "1800 Holton Rd, North Muskegon, MI 49445, USA",
    "latlng": {
      "lat": 43.283909,
      "lng": -86.220472
    },
    "timezone": "America/Detroit"
  },
  {
    "name": "ST071 Gas Station",
    "country_code": "US",
    "address": "1800 Holton Rd, North Muskegon, MI 49445, USA",
    "latlng": {
      "lat": 43.283909,
      "lng": -86.220472
    },
    "timezone": "America/Detroit"
  },
  {
    "name": "ST103",
    "country_code": "US",
    "address": "5858 N Springboro Pike, Dayton, OH 45449, USA",
    "latlng": {
      "lat": 39.671356,
      "lng": -84.220887
    },
    "timezone": "America/New_York"
  },
  {
    "name": "ST103 Gas Station",
    "country_code": "US",
    "address": "5858 N Springboro Pike, Dayton, OH 45449, USA",
    "latlng": {
      "lat": 39.671356,
      "lng": -84.220887
    },
    "timezone": "America/New_York"
  },
  {
    "name": "ST193 Gas Station",
    "country_code": "US",
    "address": "3960 US-10, Ludington, MI 49431, USA",
    "latlng": {
      "lat": 43.956777,
      "lng": -86.378655
    },
    "timezone": "America/Detroit"
  },
  {
    "name": "ST193",
    "country_code": "US",
    "address": "3900 US-10, Ludington, MI 49431, USA",
    "latlng": {
      "lat": 43.958779,
      "lng": -86.37727
    },
    "timezone": "America/Detroit"
  },
  {
    "name": "ST134 Gas Station",
    "country_code": "US",
    "address": "5303 E Southport Rd, Indianapolis, IN 46237, USA",
    "latlng": {
      "lat": 39.665394,
      "lng": -86.077917
    },
    "timezone": "America/Indiana/Indianapolis"
  },
  {
    "name": "ST134",
    "country_code": "US",
    "address": "5325 E Southport Rd, Indianapolis, IN 46237, USA",
    "latlng": {
      "lat": 39.664335,
      "lng": -86.077761
    },
    "timezone": "America/Indiana/Indianapolis"
  },
  {
    "name": "ST106 Gas Station",
    "country_code": "US",
    "address": "9200 N Main St, Dayton, OH 45415, USA",
    "latlng": {
      "lat": 39.857132,
      "lng": -84.27783
    },
    "timezone": "America/New_York"
  },
  {
    "name": "ST106",
    "country_code": "US",
    "address": "9200 N Main St, Dayton, OH 45415, USA",
    "latlng": {
      "lat": 39.857132,
      "lng": -84.27783
    },
    "timezone": "America/New_York"
  },
  {
    "name": "ST217",
    "country_code": "US",
    "address": "3320 W Shore Dr, Holland, MI 49424, USA",
    "latlng": {
      "lat": 42.828634,
      "lng": -86.0915
    },
    "timezone": "America/Detroit"
  },
  {
    "name": "ST217 Gas Station",
    "country_code": "US",
    "address": "3320 W Shore Dr, Holland, MI 49424, USA",
    "latlng": {
      "lat": 42.828634,
      "lng": -86.0915
    },
    "timezone": "America/Detroit"
  },
  {
    "name": "ST221 Gas Station",
    "country_code": "US",
    "address": "3434 Century Center St SW, Grandville, MI 49418, USA",
    "latlng": {
      "lat": 42.881535,
      "lng": -85.745913
    },
    "timezone": "America/Detroit"
  },
  {
    "name": "ST229 Gas Station",
    "country_code": "US",
    "address": "2995 Gratiot Blvd, Marysville, MI 48040, USA",
    "latlng": {
      "lat": 42.910736,
      "lng": -82.495855
    },
    "timezone": "America/Detroit"
  },
  {
    "name": "ST237",
    "country_code": "US",
    "address": "29505 Mound Rd, Warren, MI 48092, USA",
    "latlng": {
      "lat": 42.51017,
      "lng": -83.048099
    },
    "timezone": "America/Detroit"
  },
  {
    "name": "ST237 Gas Station",
    "country_code": "US",
    "address": "29585 Mound Rd, Warren, MI 48092, USA",
    "latlng": {
      "lat": 42.51115,
      "lng": -83.04741
    },
    "timezone": "America/Detroit"
  },
  {
    "name": "ST128",
    "country_code": "US",
    "address": "3610 Bremen Hwy, Mishawaka, IN 46544, USA",
    "latlng": {
      "lat": 41.62765,
      "lng": -86.176365
    },
    "timezone": "America/Indiana/Indianapolis"
  },
  {
    "name": "ST128 Gas Station",
    "country_code": "US",
    "address": "3610 Bremen Hwy, Mishawaka, IN 46544, USA",
    "latlng": {
      "lat": 41.62765,
      "lng": -86.176365
    },
    "timezone": "America/Indiana/Indianapolis"
  },
  {
    "name": "ST205",
    "country_code": "US",
    "address": "11901 Fulton St E, Lowell, MI 49331, USA",
    "latlng": {
      "lat": 42.933256,
      "lng": -85.374657
    },
    "timezone": "America/Detroit"
  },
  {
    "name": "ST205 Gas Station",
    "country_code": "US",
    "address": "11901 Fulton St E, Lowell, MI 49331, USA",
    "latlng": {
      "lat": 42.933256,
      "lng": -85.374657
    },
    "timezone": "America/Detroit"
  },
  {
    "name": "ST239",
    "country_code": "US",
    "address": "2700 US-34, Oswego, IL 60543, USA",
    "latlng": {
      "lat": 41.69942,
      "lng": -88.310263
    },
    "timezone": "America/Chicago"
  },
  {
    "name": "ST023 Gas Station",
    "country_code": "US",
    "address": "5125 W Saginaw Hwy, Lansing, MI 48917, USA",
    "latlng": {
      "lat": 42.739247,
      "lng": -84.623614
    },
    "timezone": "America/Detroit"
  },
  {
    "name": "ST054",
    "country_code": "US",
    "address": "20401 Haggerty Rd, Northville, MI 48167, USA",
    "latlng": {
      "lat": 42.435178,
      "lng": -83.435107
    },
    "timezone": "America/Detroit"
  },
  {
    "name": "ST057",
    "country_code": "US",
    "address": "3175 S Rochester Rd, Rochester Hills, MI 48307, USA",
    "latlng": {
      "lat": 42.633837,
      "lng": -83.128376
    },
    "timezone": "America/Detroit"
  },
  {
    "name": "ST171 Gas Station",
    "country_code": "US",
    "address": "8555 34 Rd, Cadillac, MI 49601, USA",
    "latlng": {
      "lat": 44.281916,
      "lng": -85.405764
    },
    "timezone": "America/Detroit"
  },
  {
    "name": "ST171",
    "country_code": "US",
    "address": "8605 E 34 Rd, Cadillac, MI 49601, USA",
    "latlng": {
      "lat": 44.28376,
      "lng": -85.404987
    },
    "timezone": "America/Detroit"
  },
  {
    "name": "ST194 Gas Station",
    "country_code": "US",
    "address": "1167 E Clinton Trail, Charlotte, MI 48813, USA",
    "latlng": {
      "lat": 42.553092,
      "lng": -84.817161
    },
    "timezone": "America/Detroit"
  },
  {
    "name": "ST156 Gas Station",
    "country_code": "US",
    "address": "2111 E Wooster St, Bowling Green, OH 43402, USA",
    "latlng": {
      "lat": 41.376205,
      "lng": -83.608178
    },
    "timezone": "America/New_York"
  },
  {
    "name": "ST156",
    "country_code": "US",
    "address": "2111 E Wooster St, Bowling Green, OH 43402, USA",
    "latlng": {
      "lat": 41.376205,
      "lng": -83.608178
    },
    "timezone": "America/New_York"
  },
  {
    "name": "ST181 Gas Station",
    "country_code": "US",
    "address": "50 Polaris Pkwy, Westerville, OH 43082, USA",
    "latlng": {
      "lat": 40.147824,
      "lng": -82.926113
    },
    "timezone": "America/New_York"
  },
  {
    "name": "ST181",
    "country_code": "US",
    "address": "100 Polaris Pkwy, Westerville, OH 43082, USA",
    "latlng": {
      "lat": 40.150648,
      "lng": -82.9256
    },
    "timezone": "America/New_York"
  },
  {
    "name": "DC085",
    "country_code": "US",
    "address": "3303 S Creyts Rd, Lansing, MI 48917, USA",
    "latlng": {
      "lat": 42.698644,
      "lng": -84.640569
    },
    "timezone": "America/Detroit"
  },
  {
    "name": "DC093",
    "country_code": "US",
    "address": "2501 S Creyts Rd, Lansing, MI 48917, USA",
    "latlng": {
      "lat": 42.705686,
      "lng": -84.640123
    },
    "timezone": "America/Detroit"
  },
  {
    "name": "DC084",
    "country_code": "US",
    "address": "3405 S Creyts Rd, Lansing, MI 48917, USA",
    "latlng": {
      "lat": 42.698634,
      "lng": -84.640256
    },
    "timezone": "America/Detroit"
  },
  {
    "name": "BLG547",
    "country_code": "US",
    "address": "3317 S Creyts Rd, Lansing, MI 48917, USA",
    "latlng": {
      "lat": 42.697995,
      "lng": -84.634341
    },
    "timezone": "America/Detroit"
  },
  {
    "name": "DC089",
    "country_code": "US",
    "address": "3307 S Creyts Rd, Lansing, MI 48917, USA",
    "latlng": {
      "lat": 42.698946,
      "lng": -84.639037
    },
    "timezone": "America/Detroit"
  },
  {
    "name": "DC520",
    "country_code": "US",
    "address": "3303 S Creyts Rd, Lansing, MI 48917, USA",
    "latlng": {
      "lat": 42.698644,
      "lng": -84.640569
    },
    "timezone": "America/Detroit"
  },
  {
    "name": "DC084 Expansion",
    "country_code": "US",
    "address": "6622 Central Cir, Lansing, MI 48917, USA",
    "latlng": {
      "lat": 42.710651,
      "lng": -84.645257
    },
    "timezone": "America/Detroit"
  },
  {
    "name": "ST210 Gas Station",
    "country_code": "US",
    "address": "740 E Saginaw Hwy, Grand Ledge, MI 48837, USA",
    "latlng": {
      "lat": 42.740188,
      "lng": -84.740467
    },
    "timezone": "America/Detroit"
  },
  {
    "name": "ST210",
    "country_code": "US",
    "address": "730 E Saginaw Hwy, Grand Ledge, MI 48837, USA",
    "latlng": {
      "lat": 42.738151,
      "lng": -84.741677
    },
    "timezone": "America/Detroit"
  },
  {
    "name": "ST279 Gas Station",
    "country_code": "US",
    "address": "15 Caberfae Hwy, Manistee, MI 49660, USA",
    "latlng": {
      "lat": 44.268399,
      "lng": -86.294047
    },
    "timezone": "America/Detroit"
  },
  {
    "name": "ST279",
    "country_code": "US",
    "address": "15 Caberfae Hwy, Manistee, MI 49660, USA",
    "latlng": {
      "lat": 44.268399,
      "lng": -86.294047
    },
    "timezone": "America/Detroit"
  },
  {
    "name": "ST303 Gas Station",
    "country_code": "US",
    "address": "2770 S State Rd, Ionia, MI 48846, USA",
    "latlng": {
      "lat": 42.947527,
      "lng": -85.075288
    },
    "timezone": "America/Detroit"
  },
  {
    "name": "ST303",
    "country_code": "US",
    "address": "S State St, Pewamo, MI 48873, USA",
    "latlng": {
      "lat": 43.001186,
      "lng": -84.847359
    },
    "timezone": "America/Detroit"
  },
  {
    "name": "Mad Mobile",
    "country_code": "US",
    "address": "201 N Franklin St, Tampa, FL 33602, USA",
    "latlng": {
      "lat": 27.946798,
      "lng": -82.456955
    },
    "timezone": "America/New_York"
  },
  {
    "name": "ST247 Gas Station",
    "country_code": "US",
    "address": "2500 S Philo Rd, Urbana, IL 61802, USA",
    "latlng": {
      "lat": 40.08441,
      "lng": -88.189686
    },
    "timezone": "America/Chicago"
  },
  {
    "name": "ST148 Gas Station",
    "country_code": "US",
    "address": "888 Eastgate N Dr, Cincinnati, OH 45245, USA",
    "latlng": {
      "lat": 39.097907,
      "lng": -84.263785
    },
    "timezone": "America/New_York"
  },
  {
    "name": "ST314 Gas Station",
    "country_code": "US",
    "address": "4242 E Dupont Rd, Fort Wayne, IN 46825, USA",
    "latlng": {
      "lat": 41.178818,
      "lng": -85.091215
    },
    "timezone": "America/Indiana/Indianapolis"
  },
  {
    "name": "ST206 Gas Station",
    "country_code": "US",
    "address": "400 S Randall Rd, Algonquin, IL 60102, USA",
    "latlng": {
      "lat": 42.170287,
      "lng": -88.338809
    },
    "timezone": "America/Chicago"
  },
  {
    "name": "DC807 OUTDOOR",
    "country_code": "US",
    "address": "100 Abbott Park Way, Tipp City, OH 45371, USA",
    "latlng": {
      "lat": 39.971069,
      "lng": -84.200071
    },
    "timezone": "America/New_York"
  },
  {
    "name": "ST300 Gas Station",
    "country_code": "US",
    "address": "3801 N Richmond St, Appleton, WI 54913, USA",
    "latlng": {
      "lat": 44.300625,
      "lng": -88.41888
    },
    "timezone": "America/Chicago"
  },
  {
    "name": "ST214 Gas Station",
    "country_code": "US",
    "address": "13521 Illinois Rte 59, Plainfield, IL 60544, USA",
    "latlng": {
      "lat": 41.634833,
      "lng": -88.199547
    },
    "timezone": "America/Chicago"
  },
  {
    "name": "ST174 Gas Station",
    "country_code": "US",
    "address": "550 Hull Rd, Mason, MI 48854, USA",
    "latlng": {
      "lat": 42.565992,
      "lng": -84.443447
    },
    "timezone": "America/Detroit"
  },
  {
    "name": "ST104 Gas Station",
    "country_code": "US",
    "address": "1661 Hilliard Rome Rd, Hilliard, OH 43026, USA",
    "latlng": {
      "lat": 39.984116,
      "lng": -83.154012
    },
    "timezone": "America/New_York"
  },
  {
    "name": "ST104",
    "country_code": "US",
    "address": "1661 Hilliard Rome Rd, Hilliard, OH 43026, USA",
    "latlng": {
      "lat": 39.984116,
      "lng": -83.154012
    },
    "timezone": "America/New_York"
  },
  {
    "name": "ST192 Gas Station",
    "country_code": "US",
    "address": "2013 McFarland Rd, Rockford, IL 61107, USA",
    "latlng": {
      "lat": 42.295884,
      "lng": -88.977715
    },
    "timezone": "America/Chicago"
  },
  {
    "name": "ST146 Gas Station",
    "country_code": "US",
    "address": "2201 N Prospect Ave, Champaign, IL 61822, USA",
    "latlng": {
      "lat": 40.143207,
      "lng": -88.258647
    },
    "timezone": "America/Chicago"
  },
  {
    "name": "ST067",
    "country_code": "US",
    "address": "1700 N Telegraph Rd, Monroe, MI 48162, USA",
    "latlng": {
      "lat": 41.944292,
      "lng": -83.400325
    },
    "timezone": "America/Detroit"
  },
  {
    "name": "ST247",
    "country_code": "US",
    "address": "2500 S Philo Rd, Urbana, IL 61802, USA",
    "latlng": {
      "lat": 40.08441,
      "lng": -88.189686
    },
    "timezone": "America/Chicago"
  },
  {
    "name": "ST155",
    "country_code": "US",
    "address": "2507 Chester Blvd, Richmond, IN 47375, USA",
    "latlng": {
      "lat": 39.869029,
      "lng": -84.885353
    },
    "timezone": "America/Indiana/Indianapolis"
  },
  {
    "name": "ST182 Gas Station",
    "country_code": "US",
    "address": "WM25+2J St. Charles, IL, USA",
    "latlng": {
      "lat": 41.900053,
      "lng": -88.34095
    },
    "timezone": "America/Chicago"
  },
  {
    "name": "ST183 Gas Station",
    "country_code": "US",
    "address": "815 S Randall Rd, Elgin, IL 60123, USA",
    "latlng": {
      "lat": 42.009152,
      "lng": -88.336129
    },
    "timezone": "America/Chicago"
  },
  {
    "name": "ST206",
    "country_code": "US",
    "address": "400 S Randall Rd, Algonquin, IL 60102, USA",
    "latlng": {
      "lat": 42.170287,
      "lng": -88.338809
    },
    "timezone": "America/Chicago"
  },
  {
    "name": "ST192",
    "country_code": "US",
    "address": "2013 McFarland Rd, Rockford, IL 61107, USA",
    "latlng": {
      "lat": 42.295884,
      "lng": -88.977715
    },
    "timezone": "America/Chicago"
  },
  {
    "name": "ST259",
    "country_code": "US",
    "address": "4141 Morrish Rd, Swartz Creek, MI 48473, USA",
    "latlng": {
      "lat": 42.968218,
      "lng": -83.826893
    },
    "timezone": "America/Detroit"
  },
  {
    "name": "ST230",
    "country_code": "US",
    "address": "17000 Mercantile Blvd, Noblesville, IN 46060, USA",
    "latlng": {
      "lat": 40.035492,
      "lng": -85.991425
    },
    "timezone": "America/Indiana/Indianapolis"
  },
  {
    "name": "ST230 Gas Station",
    "country_code": "US",
    "address": "16905 Mercantile Blvd, Noblesville, IN 46060, USA",
    "latlng": {
      "lat": 40.034242,
      "lng": -85.994382
    },
    "timezone": "America/Indiana/Indianapolis"
  },
  {
    "name": "ST219",
    "country_code": "US",
    "address": "14169 S Bell Rd, Homer Glen, IL 60491, USA",
    "latlng": {
      "lat": 41.631353,
      "lng": -87.928774
    },
    "timezone": "America/Chicago"
  },
  {
    "name": "ST219 Gas Station",
    "country_code": "US",
    "address": "14169 S Bell Rd, Homer Glen, IL 60491, USA",
    "latlng": {
      "lat": 41.631353,
      "lng": -87.928774
    },
    "timezone": "America/Chicago"
  },
  {
    "name": "ST198",
    "country_code": "US",
    "address": "130 S Gary Ave, Bloomingdale, IL 60108, USA",
    "latlng": {
      "lat": 41.955183,
      "lng": -88.122802
    },
    "timezone": "America/Chicago"
  },
  {
    "name": "ST198 Gas Station",
    "country_code": "US",
    "address": "130 S Gary Ave, Bloomingdale, IL 60108, USA",
    "latlng": {
      "lat": 41.955183,
      "lng": -88.122802
    },
    "timezone": "America/Chicago"
  },
  {
    "name": "ST165 Gas Station",
    "country_code": "US",
    "address": "505 W Lincoln Hwy, Merrillville, IN 46410, USA",
    "latlng": {
      "lat": 41.470431,
      "lng": -87.343212
    },
    "timezone": "America/Chicago"
  },
  {
    "name": "ST165",
    "country_code": "US",
    "address": "611 W Lincoln Hwy, Merrillville, IN 46410, USA",
    "latlng": {
      "lat": 41.46776,
      "lng": -87.345946
    },
    "timezone": "America/Chicago"
  },
  {
    "name": "ST207 Gas Station",
    "country_code": "US",
    "address": "Meijer 207, 1900 E College Ave, Normal, IL 61761, USA",
    "latlng": {
      "lat": 40.512498,
      "lng": -88.94659
    },
    "timezone": "America/Chicago"
  },
  {
    "name": "ST207",
    "country_code": "US",
    "address": "Meijer 207, 1900 E College Ave, Normal, IL 61761, USA",
    "latlng": {
      "lat": 40.512498,
      "lng": -88.94659
    },
    "timezone": "America/Chicago"
  },
  {
    "name": "ST176 Gas Station",
    "country_code": "US",
    "address": "4200 Conestoga Dr, Springfield, IL 62711, USA",
    "latlng": {
      "lat": 39.738144,
      "lng": -89.70189
    },
    "timezone": "America/Chicago"
  },
  {
    "name": "ST176",
    "country_code": "US",
    "address": "4200 Conestoga Dr, Springfield, IL 62711, USA",
    "latlng": {
      "lat": 39.738144,
      "lng": -89.70189
    },
    "timezone": "America/Chicago"
  },
  {
    "name": "ST326 Gas Station",
    "country_code": "US",
    "address": "3750 E Michigan 55, West Branch, MI 48661, USA",
    "latlng": {
      "lat": 44.276865,
      "lng": -84.267326
    },
    "timezone": "America/Detroit"
  },
  {
    "name": "DC807",
    "country_code": "US",
    "address": "100 Abbott Park Way, Tipp City, OH 45371, USA",
    "latlng": {
      "lat": 39.971069,
      "lng": -84.200071
    },
    "timezone": "America/New_York"
  },
  {
    "name": "ST324 Gas Station",
    "country_code": "US",
    "address": "6200 S Pennsylvania Ave, Lansing, MI 48911, USA",
    "latlng": {
      "lat": 42.668245,
      "lng": -84.541358
    },
    "timezone": "America/Detroit"
  },
  {
    "name": "ST324",
    "country_code": "US",
    "address": "6200 S Pennsylvania Ave, Lansing, MI 48911, USA",
    "latlng": {
      "lat": 42.668245,
      "lng": -84.541358
    },
    "timezone": "America/Detroit"
  },
  {
    "name": "ST314",
    "country_code": "US",
    "address": "4242 E Dupont Rd, Fort Wayne, IN 46825, USA",
    "latlng": {
      "lat": 41.178818,
      "lng": -85.091215
    },
    "timezone": "America/Indiana/Indianapolis"
  }
]